,City1,City1_long,City1_lat,City2,City2_long,City2_lat,City3,City3_long,City3_lat
0,"Goldsboro, NC",-77.972,35.3778,"St. Cloud, MN",-94.1718,45.5339,"Stamford, CT",-73.5583,41.1035
1,"Woodbury, MN",-92.923,44.9056,"Medford, MA",-71.1087,42.4234,"Des Plaines, IL",-87.9009,42.0345
2,"Muncie, IN",-85.395,40.1989,"Roswell, GA",-84.3513,34.0391,"Houma, LA",-90.7058,29.5799
3,"Glendora, CA",-117.8468,34.1449,"Lafayette, LA",-92.0323,30.2084,"Dublin, CA",-121.8963,37.7161
4,"San Juan, PR",-66.0636,18.4037,"Rome, GA",-85.1862,34.2661,"Federal Way, WA",-122.3358,47.3091
5,"Charleston, SC",-79.9628,32.8153,"West Covina, CA",-117.9112,34.0555,"Saginaw, MI",-83.9501,43.4199
6,"Great Falls, MT",-111.2995,47.5022,"Johnstown, PA",-78.9193,40.3258,"Lexington, KY",-84.4587,38.0423
7,"Tempe, AZ",-111.9318,33.3881,"Midwest City, OK",-97.3709,35.463,"Wenatchee, WA",-120.3283,47.4356
8,"Midland, TX",-102.1137,32.0249,"Round Lake Beach, IL",-88.0811,42.379,"Modesto, CA",-121.0028,37.6374
9,"Long Beach, CA",-118.1675,33.7981,"Broomfield, CO",-105.0527,39.9541,"Kettering, OH",-84.1495,39.6957
10,"Muncie, IN",-85.395,40.1989,"Chula Vista, CA",-117.0145,32.6281,"Ithaca, NY",-76.5032,42.4442
11,"Pinellas Park, FL",-82.7078,27.8589,"Wilmington, NC",-77.8866,34.21,"Escondido, CA",-117.0722,33.1347
12,"Panama City, FL",-85.6004,30.1995,"Centennial, CO",-104.8674,39.5926,"Vista, CA",-117.2386,33.1896
13,"Bolingbrook, IL",-88.1019,41.6903,"Buckeye, AZ",-112.6429,33.4314,"Victorville, CA",-117.3536,34.5277
14,"Norman, OK",-97.3471,35.2335,"Orange, CA",-117.8218,33.8038,"Berwyn, IL",-87.7909,41.8433
15,"Idaho Falls, ID",-112.0362,43.4872,"Rancho Cordova, CA",-121.2523,38.574,"Mobile, AL",-88.1162,30.6783
16,"Missoula, MT",-114.0214,46.875,"Poughkeepsie, NY",-73.921,41.6949,"North Miami, FL",-80.1686,25.9007
17,"Dothan, AL",-85.4069,31.2335,"Alhambra, CA",-118.1355,34.084,"Rock Hill, SC",-81.0244,34.9416
18,"Bloomington, IN",-86.5257,39.1637,"Watsonville, CA",-121.7706,36.9206,"Traverse City, MI",-85.6035,44.7547
19,"Kankakee, IL",-87.8643,41.1019,"Cheyenne, WY",-104.79,41.1351,"Apple Valley, MN",-93.2006,44.7457
20,"Pittsburg, CA",-121.8964,38.0182,"Ellicott City, MD",-76.8344,39.2773,"Aurora, IL",-88.2901,41.7637
21,"Spring Valley, NV",-115.2619,36.0987,"Bradenton, FL",-82.5739,27.49,"Chula Vista, CA",-117.0145,32.6281
22,"Arlington Heights, IL",-87.9825,42.0955,"Shoreline, WA",-122.3426,47.7564,"Maple Grove, MN",-93.4626,45.1089
23,"Pontiac, MI",-83.2878,42.6493,"Bellevue, WA",-122.1535,47.5951,"State College, PA",-77.8568,40.7909
24,"Centreville, VA",-77.4388,38.8391,"Olathe, KS",-94.8198,38.8832,"Santa Clara, CA",-121.968,37.3645
25,"Arlington, VA",-77.1011,38.8786,"Dallas, TX",-96.7662,32.7936,"North Charleston, SC",-80.0722,32.9066
26,"Leominster, MA",-71.7717,42.5209,"St. Joseph, MO",-94.821,39.7599,"Turlock, CA",-120.8588,37.5053
27,"Reading, PA",-75.9267,40.34,"Sparks, NV",-119.7157,39.5729,"Asheville, NC",-82.5536,35.5704
28,"Boca Raton, FL",-80.108,26.3752,"Newark, OH",-82.4251,40.0705,"Burbank, CA",-118.3235,34.1879
29,"Pearland, TX",-95.3215,29.5585,"Ann Arbor, MI",-83.7312,42.2755,"Shreveport, LA",-93.7956,32.4656
30,"Denton, TX",-97.1419,33.2176,"Goldsboro, NC",-77.972,35.3778,"San Jose, CA",-121.8486,37.3019
31,"Rosemead, CA",-118.0823,34.0689,"Pinellas Park, FL",-82.7078,27.8589,"Cary, NC",-78.8191,35.782
32,"Laredo, TX",-99.4875,27.5629,"Lake Elsinore, CA",-117.3344,33.6847,"Irving, TX",-96.9702,32.8584
33,"Newport News, VA",-76.5185,37.1051,"Minnetonka, MN",-93.4598,44.9322,"Waukesha, WI",-88.2464,43.0087
34,"Longmont, CO",-105.1005,40.1686,"Arden-Arcade, CA",-121.381,38.6034,"Stillwater, OK",-97.074,36.1316
35,"St. Clair Shores, MI",-82.8957,42.4921,"Los Lunas, NM",-106.7803,34.8115,"Escondido, CA",-117.0722,33.1347
36,"Davis, CA",-121.7365,38.5552,"Bremerton, WA",-122.7122,47.5436,"Rome, GA",-85.1862,34.2661
37,"Ithaca, NY",-76.5032,42.4442,"Alhambra, CA",-118.1355,34.084,"Knoxville, TN",-83.9496,35.9692
38,"Ellicott City, MD",-76.8344,39.2773,"Hickory, NC",-81.323,35.7425,"Pasadena, CA",-118.139,34.1597
39,"Victorville, CA",-117.3536,34.5277,"Zephyrhills, FL",-82.1796,28.2408,"The Woodlands, TX",-95.5134,30.1738
40,"Scottsdale, AZ",-111.8651,33.6872,"Town 'n' Country, FL",-82.576,28.0108,"East Orange, NJ",-74.2117,40.7651
41,"Riverside, CA",-117.3948,33.9381,"Casper, WY",-106.3207,42.842,"Long Beach, CA",-118.1675,33.7981
42,"Allen, TX",-96.6735,33.1088,"Bellingham, WA",-122.4687,48.7543,"Sarasota, FL",-82.5431,27.3386
43,"Chula Vista, CA",-117.0145,32.6281,"Waterloo, IA",-92.3522,42.492,"Reno, NV",-119.8483,39.5497
44,"Fond du Lac, WI",-88.4396,43.7718,"Norwalk, CT",-73.4215,41.1144,"Jefferson City, MO",-92.1759,38.5676
45,"Parkersburg, WV",-81.542,39.2624,"Round Lake Beach, IL",-88.0811,42.379,"Sandy, UT",-111.8505,40.571
46,"Westland, MI",-83.3805,42.3192,"Lexington, KY",-84.4587,38.0423,"Lima, OH",-84.1121,40.741
47,"Dundalk, MD",-76.4942,39.2703,"Joplin, MO",-94.5018,37.0758,"Anchorage, AK",-149.1091,61.1508
48,"Harrisburg, PA",-76.8843,40.2752,"Spring, TX",-95.383,30.0613,"New York, NY",-73.9249,40.6943
49,"Frisco, TX",-96.8215,33.1555,"Asheville, NC",-82.5536,35.5704,"Coeur d'Alene, ID",-116.7935,47.7041
50,"Salem, OR",-123.0246,44.9231,"Des Moines, IA",-93.6105,41.5725,"Bismarck, ND",-100.7694,46.8144
51,"Sugar Land, TX",-95.6357,29.5935,"Kingsport, TN",-82.5453,36.5224,"Decatur, AL",-86.9906,34.573
52,"Livermore, CA",-121.7608,37.6862,"Springdale, AR",-94.1574,36.1899,"Novi, MI",-83.4893,42.4786
53,"Warner Robins, GA",-83.6529,32.597,"Fort Myers, FL",-81.8303,26.6195,"Lafayette, LA",-92.0323,30.2084
54,"North Charleston, SC",-80.0722,32.9066,"San Rafael, CA",-122.5222,37.9905,"Bay City, MI",-83.8886,43.5903
55,"South Fulton, GA",-84.5802,33.6269,"Flagstaff, AZ",-111.6195,35.1872,"Paramount, CA",-118.1652,33.8976
56,"Schenectady, NY",-73.9276,42.8025,"Leominster, MA",-71.7717,42.5209,"Indio, CA",-116.2346,33.7346
57,"Forney, TX",-96.4529,32.744,"Denver, CO",-104.8759,39.7621,"San Tan Valley, AZ",-111.5472,33.1879
58,"High Point, NC",-79.9938,35.9907,"San Mateo, CA",-122.3122,37.5521,"Fargo, ND",-96.8292,46.8652
59,"Peoria, IL",-89.6153,40.752,"Jacksonville, NC",-77.3941,34.7288,"Rosemead, CA",-118.0823,34.0689
60,"Palm Harbor, FL",-82.7481,28.0847,"Berkeley, CA",-122.276,37.8723,"Costa Mesa, CA",-117.9135,33.6667
61,"Lawrence, KS",-95.2641,38.9597,"Cape Girardeau, MO",-89.5597,37.3108,"Gadsden, AL",-86.0156,34.009
62,"Utica, NY",-75.226,43.0961,"Allentown, PA",-75.4756,40.5961,"Wichita Falls, TX",-98.5291,33.9072
63,"Fort Worth, TX",-97.3473,32.7811,"Kendale Lakes, FL",-80.4078,25.7081,"El Centro, CA",-115.5586,32.7867
64,"Kansas City, KS",-94.7443,39.1234,"Colorado Springs, CO",-104.7606,38.8674,"Ithaca, NY",-76.5032,42.4442
65,"Greenwood, IN",-86.1073,39.6019,"South Whittier, CA",-118.0311,33.9336,"Lakeland, FL",-81.9545,28.0556
66,"Stockton, CA",-121.3109,37.9765,"Portland, OR",-122.65,45.5372,"Queens, NY",-73.7976,40.7498
67,"Indianapolis, IN",-86.1458,39.7771,"Miami Gardens, FL",-80.2426,25.9433,"Murfreesboro, TN",-86.4119,35.8492
68,"Portsmouth, NH",-70.7826,43.058,"Round Rock, TX",-97.666,30.5254,"Dubuque, IA",-90.7067,42.5008
69,"North Miami, FL",-80.1686,25.9007,"Oshkosh, WI",-88.5619,44.0228,"Manhattan, NY",-73.9662,40.7834
70,"Houston, TX",-95.3889,29.7863,"Oakland, CA",-122.2165,37.7903,"Delray Beach, FL",-80.0905,26.455
71,"Shawnee, KS",-94.8076,39.0158,"Vancouver, WA",-122.5967,45.6366,"Battle Creek, MI",-85.2296,42.2986
72,"Weston, FL",-80.4054,26.1006,"St. Cloud, MN",-94.1718,45.5339,"Richland, WA",-119.2938,46.2824
73,"Turlock, CA",-120.8588,37.5053,"Twin Falls, ID",-114.4615,42.5645,"Fresno, CA",-119.7941,36.7831
74,"Hialeah, FL",-80.3046,25.8696,"West Palm Beach, FL",-80.1316,26.7468,"Oakland, CA",-122.2165,37.7903
75,"Lancaster, CA",-118.1753,34.6935,"Irving, TX",-96.9702,32.8584,"Redding, CA",-122.365,40.5698
76,"Carson, CA",-118.2559,33.8374,"Franklin, TN",-86.8525,35.9216,"Stillwater, OK",-97.074,36.1316
77,"Somerville, MA",-71.1013,42.3908,"Owensboro, KY",-87.1173,37.7574,"Mayag체ez, PR",-67.1397,18.2003
78,"Yakima, WA",-120.5496,46.5923,"Levittown, NY",-73.5125,40.7241,"Fort Lauderdale, FL",-80.1464,26.1412
79,"Tulare, CA",-119.34,36.1996,"Port Charlotte, FL",-82.114,26.9918,"Wheaton, IL",-88.1083,41.8561
80,"League City, TX",-95.1087,29.4873,"Green Bay, WI",-87.9896,44.515,"La Crosse, WI",-91.2268,43.824
81,"Pico Rivera, CA",-118.0888,33.9902,"Farmington, NM",-108.1823,36.7555,"Stonecrest, GA",-84.1372,33.6842
82,"League City, TX",-95.1087,29.4873,"Pomona, CA",-117.7626,34.0585,"Kissimmee, FL",-81.4164,28.3042
83,"Shoreline, WA",-122.3426,47.7564,"Fayetteville, AR",-94.166,36.0713,"San Clemente, CA",-117.6103,33.4498
84,"Taylorsville, UT",-111.9493,40.657,"Hesperia, CA",-117.3147,34.3975,"Providence, RI",-71.4187,41.823
85,"Marysville, WA",-122.1561,48.0809,"Slidell, LA",-89.7826,30.2881,"New Haven, CT",-72.9246,41.3112
86,"Parma, OH",-81.7286,41.3843,"Broken Arrow, OK",-95.7809,36.0365,"Loveland, CO",-105.0623,40.4166
87,"Irvine, CA",-117.7738,33.6772,"Bolingbrook, IL",-88.1019,41.6903,"Conway, AR",-92.4694,35.0754
88,"Monessen, PA",-79.8828,40.1519,"Lake Jackson, TX",-95.4522,29.0516,"Dothan, AL",-85.4069,31.2335
89,"Sparks, NV",-119.7157,39.5729,"Spokane, WA",-117.433,47.6671,"Columbia, MD",-76.859,39.2004
90,"St. Joseph, MO",-94.821,39.7599,"Pocatello, ID",-112.4646,42.8724,"Downey, CA",-118.1312,33.9379
91,"Cleveland, TN",-84.8707,35.1817,"Smyrna, GA",-84.5168,33.8633,"Largo, FL",-82.7711,27.9088
92,"Sumter, SC",-80.393,33.9392,"Seaside, CA",-121.8191,36.6224,"Bonita Springs, FL",-81.7861,26.3559
93,"Thornton, CO",-104.9438,39.9197,"Rio Rancho, NM",-106.6981,35.2872,"Vista, CA",-117.2386,33.1896
94,"Springfield, MA",-72.5395,42.1155,"Cape Coral, FL",-81.9956,26.6446,"Montebello, CA",-118.1108,34.0155
95,"Chandler, AZ",-111.8516,33.2826,"Davie, FL",-80.287,26.0789,"Porterville, CA",-119.0338,36.0644
96,"Flint, MI",-83.6922,43.0235,"Fall River, MA",-71.1014,41.7137,"Cincinnati, OH",-84.5061,39.1413
97,"Pueblo, CO",-104.6112,38.2705,"Waterbury, CT",-73.0361,41.5583,"Warwick, RI",-71.4334,41.7062
98,"Cathedral City, CA",-116.4642,33.8363,"Forney, TX",-96.4529,32.744,"Burbank, CA",-118.3235,34.1879
99,"Petaluma, CA",-122.6267,38.2423,"Taunton, MA",-71.0943,41.9036,"St. Petersburg, FL",-82.6652,27.7931
100,"Florence, SC",-79.7877,34.1781,"Leominster, MA",-71.7717,42.5209,"Brooklyn Park, MN",-93.3505,45.1112
101,"Dearborn, MI",-83.2129,42.3127,"El Paso de Robles, CA",-120.656,35.6394,"Revere, MA",-71.0036,42.4192
102,"Winter Haven, FL",-81.7017,28.0118,"Bethlehem, PA",-75.3679,40.6266,"Bridgeport, CT",-73.1953,41.1918
103,"Revere, MA",-71.0036,42.4192,"Gardena, CA",-118.3073,33.8944,"Haverhill, MA",-71.0871,42.7838
104,"Rockford, IL",-89.0641,42.2597,"Johnson City, TN",-82.3803,36.3406,"Bellevue, WA",-122.1535,47.5951
105,"Peoria, AZ",-112.2989,33.7844,"Ontario, CA",-117.6064,34.0393,"Weymouth, MA",-70.9466,42.1984
106,"Mansfield, TX",-97.1211,32.569,"Blacksburg, VA",-80.4279,37.23,"Baytown, TX",-94.9669,29.7586
107,"Costa Mesa, CA",-117.9135,33.6667,"Port Huron, MI",-82.4387,42.9822,"Riverside, CA",-117.3948,33.9381
108,"Livermore, CA",-121.7608,37.6862,"Rock Hill, SC",-81.0244,34.9416,"Stamford, CT",-73.5583,41.1035
109,"Enterprise, NV",-115.2208,36.0164,"Citrus Heights, CA",-121.288,38.6948,"Wesley Chapel, FL",-82.3238,28.2106
110,"Medford, OR",-122.8537,42.3372,"Apex, NC",-78.8728,35.7239,"Green Bay, WI",-87.9896,44.515
111,"Newark, NJ",-74.1725,40.7245,"Davenport, IA",-90.6052,41.5563,"Broomfield, CO",-105.0527,39.9541
112,"Noblesville, IN",-86.0042,40.0354,"Gainesville, GA",-83.8301,34.2903,"Colorado Springs, CO",-104.7606,38.8674
113,"Rancho Cordova, CA",-121.2523,38.574,"Palmdale, CA",-118.1057,34.5944,"Columbia, SC",-80.9037,34.0376
114,"Orlando, FL",-81.3369,28.4772,"Rialto, CA",-117.3894,34.1174,"O'Fallon, MO",-90.7175,38.785
115,"Cedar Rapids, IA",-91.6782,41.9665,"Walla Walla, WA",-118.3366,46.067,"Daphne, AL",-87.8866,30.6286
116,"Arden-Arcade, CA",-121.381,38.6034,"Broomfield, CO",-105.0527,39.9541,"Bremerton, WA",-122.7122,47.5436
117,"Arden-Arcade, CA",-121.381,38.6034,"Denver, CO",-104.8759,39.7621,"Normal, IL",-88.9881,40.5218
118,"Davis, CA",-121.7365,38.5552,"The Woodlands, TX",-95.5134,30.1738,"Woodland, CA",-121.75,38.6712
119,"Pearland, TX",-95.3215,29.5585,"Anaheim, CA",-117.8572,33.839,"St. Cloud, FL",-81.2829,28.2294
120,"Aurora, CO",-104.7273,39.7087,"Casper, WY",-106.3207,42.842,"Columbus, GA",-84.8771,32.51
121,"Yakima, WA",-120.5496,46.5923,"Brunswick, GA",-81.474,31.145,"Nampa, ID",-116.5631,43.5845
122,"Thornton, CO",-104.9438,39.9197,"Temecula, CA",-117.1315,33.4928,"Pueblo, CO",-104.6112,38.2705
123,"Bloomington, MN",-93.3151,44.8306,"Tacoma, WA",-122.4531,47.2431,"West Bend, WI",-88.1824,43.4184
124,"Brownsville, TX",-97.4565,25.998,"Abilene, TX",-99.7384,32.4543,"West Covina, CA",-117.9112,34.0555
125,"Tallahassee, FL",-84.2526,30.4551,"Carrollton, TX",-96.8999,32.989,"Shawnee, KS",-94.8076,39.0158
126,"Morristown, TN",-83.3006,36.2046,"Plantation, FL",-80.2617,26.126,"Kissimmee, FL",-81.4164,28.3042
127,"Montgomery, AL",-86.2666,32.3473,"Silver Spring, MD",-77.0207,39.0028,"San Rafael, CA",-122.5222,37.9905
128,"Davenport, IA",-90.6052,41.5563,"Springfield, OH",-83.7957,39.9297,"Beaumont, CA",-116.9766,33.9076
129,"Murfreesboro, TN",-86.4119,35.8492,"Round Rock, TX",-97.666,30.5254,"Lakewood, CO",-105.1168,39.6977
130,"Waldorf, MD",-76.9195,38.6085,"St. Cloud, FL",-81.2829,28.2294,"Forney, TX",-96.4529,32.744
131,"Davie, FL",-80.287,26.0789,"Sioux City, IA",-96.3901,42.4959,"Benton Harbor, MI",-86.4488,42.1159
132,"Dundalk, MD",-76.4942,39.2703,"Oshkosh, WI",-88.5619,44.0228,"Plano, TX",-96.7487,33.0502
133,"Tucson, AZ",-110.8782,32.1545,"Lowell, MA",-71.3217,42.6389,"Brunswick, GA",-81.474,31.145
134,"Broomfield, CO",-105.0527,39.9541,"Levittown, PA",-74.853,40.1537,"Troy, MI",-83.1457,42.5818
135,"Longmont, CO",-105.1005,40.1686,"Arroyo Grande, CA",-120.5845,35.1241,"St. Joseph, MO",-94.821,39.7599
136,"Palm Harbor, FL",-82.7481,28.0847,"Des Plaines, IL",-87.9009,42.0345,"Allen, TX",-96.6735,33.1088
137,"White Plains, NY",-73.7549,41.022,"Odessa, TX",-102.3406,31.8831,"League City, TX",-95.1087,29.4873
138,"Lancaster, CA",-118.1753,34.6935,"Apex, NC",-78.8728,35.7239,"Ankeny, IA",-93.6033,41.7285
139,"Omaha, NE",-96.0522,41.2627,"Norfolk, VA",-76.259,36.8945,"South Hill, WA",-122.2848,47.1203
140,"Syracuse, NY",-76.1438,43.0409,"Apex, NC",-78.8728,35.7239,"Portland, OR",-122.65,45.5372
141,"Columbia, SC",-80.9037,34.0376,"Concord, NC",-80.6366,35.3933,"Irving, TX",-96.9702,32.8584
142,"Warren, MI",-83.027,42.4934,"Norwalk, CA",-118.0829,33.9069,"Portsmouth, NH",-70.7826,43.058
143,"Davis, CA",-121.7365,38.5552,"Wheeling, WV",-80.6951,40.0752,"Sandy Springs, GA",-84.3703,33.9366
144,"Cicero, IL",-87.7593,41.8445,"Paradise, NV",-115.1369,36.0807,"Johnstown, PA",-78.9193,40.3258
145,"Delray Beach, FL",-80.0905,26.455,"Weymouth, MA",-70.9466,42.1984,"Brooklyn Park, MN",-93.3505,45.1112
146,"East Stroudsburg, PA",-75.1779,41.0023,"Eden Prairie, MN",-93.4595,44.8488,"Fresno, CA",-119.7941,36.7831
147,"Fountainebleau, FL",-80.3458,25.7723,"Parma, OH",-81.7286,41.3843,"Jonesboro, AR",-90.6791,35.8212
148,"Ithaca, NY",-76.5032,42.4442,"Irving, TX",-96.9702,32.8584,"Sacramento, CA",-121.4683,38.5667
149,"Arvada, CO",-105.1511,39.8321,"Pittsfield, MA",-73.2605,42.4517,"Kissimmee, FL",-81.4164,28.3042
150,"El Paso de Robles, CA",-120.656,35.6394,"Warren, MI",-83.027,42.4934,"Sanford, FL",-81.276,28.7893
151,"Apopka, FL",-81.5304,28.7014,"La Crosse, WI",-91.2268,43.824,"Irvine, CA",-117.7738,33.6772
152,"Johnstown, PA",-78.9193,40.3258,"Racine, WI",-87.8135,42.7274,"The Hammocks, FL",-80.4483,25.67
153,"St. Cloud, FL",-81.2829,28.2294,"Cary, NC",-78.8191,35.782,"Port Arthur, TX",-93.9264,29.8554
154,"Miami Gardens, FL",-80.2426,25.9433,"Spring, TX",-95.383,30.0613,"Mansfield, OH",-82.5275,40.7656
155,"Brentwood, NY",-73.2522,40.7839,"Forney, TX",-96.4529,32.744,"Cathedral City, CA",-116.4642,33.8363
156,"Columbia, SC",-80.9037,34.0376,"Kenner, LA",-90.2549,30.0109,"Indio, CA",-116.2346,33.7346
157,"Tacoma, WA",-122.4531,47.2431,"Texarkana, TX",-94.0815,33.4487,"Valdosta, GA",-83.2788,30.8502
158,"Redwood City, CA",-122.2252,37.5026,"Garland, TX",-96.6305,32.91,"Davis, CA",-121.7365,38.5552
159,"Longview, WA",-122.9629,46.1461,"Paterson, NJ",-74.1624,40.9147,"Springfield, IL",-89.6538,39.771
160,"Germantown, MD",-77.2643,39.1755,"Minnetonka, MN",-93.4598,44.9322,"Cupertino, CA",-122.0465,37.3168
161,"North Las Vegas, NV",-115.0901,36.288,"Huntersville, NC",-80.8727,35.4058,"Manchester, NH",-71.4447,42.9848
162,"Barnstable, MA",-70.3599,41.6722,"Hazleton, PA",-75.9724,40.9504,"Spring, TX",-95.383,30.0613
163,"Baton Rouge, LA",-91.131,30.4418,"Aspen Hill, MD",-77.0823,39.0928,"Boynton Beach, FL",-80.0811,26.5281
164,"Tracy, CA",-121.4522,37.7269,"Bentonville, AR",-94.2306,36.3546,"Hagerstown, MD",-77.7217,39.6401
165,"Waco, TX",-97.1881,31.5598,"Rochester Hills, MI",-83.1563,42.6645,"Barnstable, MA",-70.3599,41.6722
166,"Santa Fe, NM",-105.9819,35.6619,"Bethesda, MD",-77.1188,38.9866,"Ponce, PR",-66.6198,18.012
167,"Bristol, TN",-82.2154,36.5572,"Arcadia, CA",-118.0373,34.1342,"Pawtucket, RI",-71.3743,41.8744
168,"Methuen Town, MA",-71.1889,42.734,"Chico, CA",-121.8152,39.7575,"Woodbury, MN",-92.923,44.9056
169,"Tulare, CA",-119.34,36.1996,"Springfield, OH",-83.7957,39.9297,"Fond du Lac, WI",-88.4396,43.7718
170,"Taunton, MA",-71.0943,41.9036,"Lakeland, FL",-81.9545,28.0556,"Pico Rivera, CA",-118.0888,33.9902
171,"Brunswick, GA",-81.474,31.145,"Alexandria, LA",-92.4702,31.2923,"Florence, AL",-87.6654,34.8303
172,"Hialeah, FL",-80.3046,25.8696,"Coconut Creek, FL",-80.1842,26.2803,"Muncie, IN",-85.395,40.1989
173,"San Diego, CA",-117.1225,32.8312,"Lebanon, PA",-76.4227,40.3412,"Taylorsville, UT",-111.9493,40.657
174,"Toledo, OH",-83.5822,41.6639,"Dover, DE",-75.5203,39.161,"Jackson, MS",-90.2124,32.3163
175,"Lewiston, ME",-70.1681,44.0915,"Athens, GA",-83.3689,33.9508,"Mobile, AL",-88.1162,30.6783
176,"High Point, NC",-79.9938,35.9907,"North Richland Hills, TX",-97.218,32.8605,"New Haven, CT",-72.9246,41.3112
177,"Burnsville, MN",-93.2795,44.7648,"New Braunfels, TX",-98.1148,29.6994,"Skokie, IL",-87.74,42.0359
178,"Topeka, KS",-95.6955,39.0346,"Cedar Park, TX",-97.8196,30.5106,"Vista, CA",-117.2386,33.1896
179,"Lafayette, LA",-92.0323,30.2084,"San Rafael, CA",-122.5222,37.9905,"Smyrna, GA",-84.5168,33.8633
180,"Chicago, IL",-87.6862,41.8373,"Lake Havasu City, AZ",-114.3113,34.5006,"Nashua, NH",-71.491,42.7491
181,"Alafaya, FL",-81.1865,28.5278,"Fresno, CA",-119.7941,36.7831,"Hagerstown, MD",-77.7217,39.6401
182,"Medford, MA",-71.1087,42.4234,"Bossier City, LA",-93.6666,32.5227,"Miami Beach, FL",-80.1396,25.8171
183,"Middletown, OH",-84.366,39.5032,"Winchester, VA",-78.1746,39.1735,"Federal Way, WA",-122.3358,47.3091
184,"Port Huron, MI",-82.4387,42.9822,"Sacramento, CA",-121.4683,38.5667,"Springfield, MA",-72.5395,42.1155
185,"Portsmouth, NH",-70.7826,43.058,"Jackson, MI",-84.4037,42.2431,"Santa Monica, CA",-118.4813,34.0232
186,"Richmond, CA",-122.339,37.9477,"Philadelphia, PA",-75.1339,40.0077,"Pasco, WA",-119.1304,46.2506
187,"Athens, GA",-83.3689,33.9508,"Los Lunas, NM",-106.7803,34.8115,"Frisco, TX",-96.8215,33.1555
188,"Carson, CA",-118.2559,33.8374,"Poughkeepsie, NY",-73.921,41.6949,"Pico Rivera, CA",-118.0888,33.9902
189,"Jersey City, NJ",-74.0682,40.7161,"Glens Falls, NY",-73.6459,43.3109,"Denton, TX",-97.1419,33.2176
190,"Elkhart, IN",-85.9628,41.6916,"Wilmington, DE",-75.5413,39.7415,"Chula Vista, CA",-117.0145,32.6281
191,"Victorville, CA",-117.3536,34.5277,"Charlotte, NC",-80.8304,35.208,"Indianapolis, IN",-86.1458,39.7771
192,"Tacoma, WA",-122.4531,47.2431,"Medford, OR",-122.8537,42.3372,"Bakersfield, CA",-119.0359,35.3529
193,"Escondido, CA",-117.0722,33.1347,"Spring Valley, NV",-115.2619,36.0987,"Lincoln, NE",-96.6788,40.809
194,"Houma, LA",-90.7058,29.5799,"Davie, FL",-80.287,26.0789,"Hampton, VA",-76.363,37.0551
195,"Conway, AR",-92.4694,35.0754,"Omaha, NE",-96.0522,41.2627,"Cape Girardeau, MO",-89.5597,37.3108
196,"Sierra Vista, AZ",-110.3153,31.563,"Portsmouth, VA",-76.354,36.8468,"League City, TX",-95.1087,29.4873
197,"Pottstown, PA",-75.6444,40.2507,"Carbondale, IL",-89.2238,37.7221,"Lake Charles, LA",-93.2122,30.2012
198,"Fond du Lac, WI",-88.4396,43.7718,"Hanford, CA",-119.6549,36.3274,"Hoboken, NJ",-74.0279,40.7453
199,"Frederick, MD",-77.4141,39.4336,"The Hammocks, FL",-80.4483,25.67,"El Paso de Robles, CA",-120.656,35.6394
200,"Green Bay, WI",-87.9896,44.515,"Lake Elsinore, CA",-117.3344,33.6847,"South Hill, WA",-122.2848,47.1203
201,"Killeen, TX",-97.7296,31.0754,"Peoria, IL",-89.6153,40.752,"Deerfield Beach, FL",-80.1277,26.305
202,"Lubbock, TX",-101.8878,33.5659,"Cartersville, GA",-84.8007,34.1639,"Lawrence, MA",-71.1626,42.7003
203,"Redlands, CA",-117.1712,34.0511,"Bronx, NY",-73.8662,40.8501,"Lakewood, WA",-122.5299,47.1628
204,"Lawrence, MA",-71.1626,42.7003,"Milpitas, CA",-121.8921,37.4339,"Smyrna, TN",-86.5253,35.9722
205,"Bronx, NY",-73.8662,40.8501,"Saginaw, MI",-83.9501,43.4199,"Bayam처n, PR",-66.1635,18.3793
206,"Escondido, CA",-117.0722,33.1347,"Kettering, OH",-84.1495,39.6957,"San Ramon, CA",-121.9365,37.7625
207,"Muncie, IN",-85.395,40.1989,"Apple Valley, CA",-117.2104,34.5328,"Hoboken, NJ",-74.0279,40.7453
208,"Sparks, NV",-119.7157,39.5729,"Flagstaff, AZ",-111.6195,35.1872,"San Francisco, CA",-122.443,37.7562
209,"Brownsville, TX",-97.4565,25.998,"Highlands Ranch, CO",-104.9708,39.5419,"Lynn, MA",-70.9663,42.4779
210,"Hickory, NC",-81.323,35.7425,"Nashville, TN",-86.7843,36.1715,"Livermore, CA",-121.7608,37.6862
211,"Lorain, OH",-82.184,41.4409,"Portland, ME",-70.2715,43.6773,"Tacoma, WA",-122.4531,47.2431
212,"Edinburg, TX",-98.1596,26.3197,"Longmont, CO",-105.1005,40.1686,"New Bern, NC",-77.0723,35.0955
213,"Brentwood, NY",-73.2522,40.7839,"Meridian, ID",-116.3968,43.6112,"Metairie, LA",-90.178,29.9977
214,"Bridgeport, CT",-73.1953,41.1918,"Wichita Falls, TX",-98.5291,33.9072,"Concord, NC",-80.6366,35.3933
215,"Boynton Beach, FL",-80.0811,26.5281,"Peoria, IL",-89.6153,40.752,"Eagan, MN",-93.1638,44.8169
216,"Albany, GA",-84.1762,31.5776,"Salisbury, MD",-75.5867,38.3756,"San Mateo, CA",-122.3122,37.5521
217,"Columbus, OH",-82.985,39.9862,"Asheville, NC",-82.5536,35.5704,"Kennewick, WA",-119.1732,46.1978
218,"Denver, CO",-104.8759,39.7621,"Olathe, KS",-94.8198,38.8832,"Carrollton, TX",-96.8999,32.989
219,"West Jordan, UT",-112.0008,40.6024,"Lakeland, FL",-81.9545,28.0556,"Casa Grande, AZ",-111.7624,32.9068
220,"Springfield, OH",-83.7957,39.9297,"Concord, NC",-80.6366,35.3933,"Pleasanton, CA",-121.8805,37.6663
221,"New Britain, CT",-72.7862,41.6758,"New Braunfels, TX",-98.1148,29.6994,"York, PA",-76.7315,39.9651
222,"Riverside, CA",-117.3948,33.9381,"Decatur, IL",-88.9337,39.8556,"Deerfield Beach, FL",-80.1277,26.305
223,"Long Beach, CA",-118.1675,33.7981,"Jersey City, NJ",-74.0682,40.7161,"Tracy, CA",-121.4522,37.7269
224,"Simi Valley, CA",-118.749,34.2663,"Idaho Falls, ID",-112.0362,43.4872,"Homestead, FL",-80.4472,25.4665
225,"West Lafayette, IN",-86.9239,40.4432,"El Paso de Robles, CA",-120.656,35.6394,"Boise, ID",-116.2312,43.6007
226,"Everett, WA",-122.1669,47.9525,"Walla Walla, WA",-118.3366,46.067,"Eden Prairie, MN",-93.4595,44.8488
227,"Lancaster, CA",-118.1753,34.6935,"Paramount, CA",-118.1652,33.8976,"Saratoga Springs, NY",-73.7775,43.0674
228,"Naperville, IL",-88.1657,41.7483,"Kent, WA",-122.2129,47.3887,"Columbia, SC",-80.9037,34.0376
229,"Chapel Hill, NC",-79.0391,35.927,"Elmira, NY",-76.8097,42.0938,"Holland, MI",-86.0985,42.7677
230,"Berwyn, IL",-87.7909,41.8433,"Rochester Hills, MI",-83.1563,42.6645,"Gainesville, GA",-83.8301,34.2903
231,"Gilroy, CA",-121.5855,37.0047,"Port St. Lucie, FL",-80.3883,27.2796,"Bradenton, FL",-82.5739,27.49
232,"Clovis, CA",-119.6831,36.8278,"Bellevue, WA",-122.1535,47.5951,"Homestead, FL",-80.4472,25.4665
233,"Lee's Summit, MO",-94.3816,38.9172,"Corvallis, OR",-123.278,44.5697,"Perth Amboy, NJ",-74.2724,40.5203
234,"St. Clair Shores, MI",-82.8957,42.4921,"Conroe, TX",-95.4825,30.3239,"Dover, DE",-75.5203,39.161
235,"El Paso, TX",-106.4309,31.8479,"Wellington, FL",-80.2699,26.6461,"Stillwater, OK",-97.074,36.1316
236,"Allentown, PA",-75.4756,40.5961,"West Valley City, UT",-112.0115,40.6889,"St. George, UT",-113.577,37.077
237,"Tucson, AZ",-110.8782,32.1545,"Daly City, CA",-122.4685,37.6862,"Cranston, RI",-71.4857,41.7658
238,"The Hammocks, FL",-80.4483,25.67,"La Crosse, WI",-91.2268,43.824,"Mansfield, TX",-97.1211,32.569
239,"Long Beach, CA",-118.1675,33.7981,"Mission, TX",-98.3251,26.2041,"Duluth, MN",-92.1392,46.7756
240,"Santee, CA",-116.9851,32.8554,"Fort Worth, TX",-97.3473,32.7811,"Rogers, AR",-94.1526,36.3172
241,"Daly City, CA",-122.4685,37.6862,"Waterloo, IA",-92.3522,42.492,"Bonita Springs, FL",-81.7861,26.3559
242,"Las Cruces, NM",-106.7892,32.3265,"St. Charles, MO",-90.5157,38.7954,"Texarkana, TX",-94.0815,33.4487
243,"Pocatello, ID",-112.4646,42.8724,"Apple Valley, CA",-117.2104,34.5328,"Lake Jackson, TX",-95.4522,29.0516
244,"Philadelphia, PA",-75.1339,40.0077,"San Juan, PR",-66.0636,18.4037,"Mauldin, SC",-82.3005,34.7849
245,"Boulder, CO",-105.2523,40.0249,"Pearland, TX",-95.3215,29.5585,"Barnstable, MA",-70.3599,41.6722
246,"Morristown, TN",-83.3006,36.2046,"Newark, OH",-82.4251,40.0705,"Taylor, MI",-83.2688,42.226
247,"North Richland Hills, TX",-97.218,32.8605,"Levittown, PA",-74.853,40.1537,"Morgantown, WV",-79.9468,39.638
248,"Gilbert, AZ",-111.7463,33.3101,"Gilroy, CA",-121.5855,37.0047,"Bolingbrook, IL",-88.1019,41.6903
249,"Somerville, MA",-71.1013,42.3908,"Bloomington, MN",-93.3151,44.8306,"Cicero, IL",-87.7593,41.8445
250,"North Charleston, SC",-80.0722,32.9066,"Gresham, OR",-122.4413,45.5023,"Westland, MI",-83.3805,42.3192
251,"Plymouth, MN",-93.4618,45.0225,"Jacksonville, FL",-81.6749,30.3322,"Kansas City, KS",-94.7443,39.1234
252,"Dublin, CA",-121.8963,37.7161,"San Jose, CA",-121.8486,37.3019,"Gilbert, AZ",-111.7463,33.3101
253,"Albany, OR",-123.0966,44.6274,"Coral Springs, FL",-80.2591,26.2702,"Manchester, NH",-71.4447,42.9848
254,"Traverse City, MI",-85.6035,44.7547,"Tulare, CA",-119.34,36.1996,"Coeur d'Alene, ID",-116.7935,47.7041
255,"Rockville, MD",-77.1552,39.0834,"Hacienda Heights, CA",-117.9728,33.997,"Denton, TX",-97.1419,33.2176
256,"Oak Park, IL",-87.7899,41.8872,"State College, PA",-77.8568,40.7909,"Virginia Beach, VA",-76.0435,36.7335
257,"Loveland, CO",-105.0623,40.4166,"Columbus, GA",-84.8771,32.51,"Santa Maria, CA",-120.4432,34.9334
258,"Portsmouth, VA",-76.354,36.8468,"Kansas City, KS",-94.7443,39.1234,"Lake Forest, CA",-117.6712,33.6606
259,"Houston, TX",-95.3889,29.7863,"Guaynabo, PR",-66.1134,18.3839,"Fairfield, CA",-122.0324,38.2592
260,"Livermore, CA",-121.7608,37.6862,"Tuscaloosa, AL",-87.5267,33.2348,"Antioch, CA",-121.7958,37.9789
261,"Spring, TX",-95.383,30.0613,"Corvallis, OR",-123.278,44.5697,"Temple, TX",-97.3894,31.1076
262,"Baytown, TX",-94.9669,29.7586,"Hamilton, OH",-84.5653,39.3938,"Livermore, CA",-121.7608,37.6862
263,"Cleveland, OH",-81.6804,41.4767,"Lauderhill, FL",-80.2242,26.1605,"Westland, MI",-83.3805,42.3192
264,"Brentwood, CA",-121.7191,37.9355,"North Port, FL",-82.1975,27.0577,"Eagle Pass, TX",-100.484,28.7125
265,"Casper, WY",-106.3207,42.842,"Kalamazoo, MI",-85.5882,42.2749,"Daytona Beach, FL",-81.0982,29.1994
266,"Lorain, OH",-82.184,41.4409,"Aurora, IL",-88.2901,41.7637,"San Francisco, CA",-122.443,37.7562
267,"Leander, TX",-97.8618,30.5728,"Johns Creek, GA",-84.2027,34.0333,"Hanover, PA",-76.9835,39.8117
268,"Dalton, GA",-84.9712,34.769,"Rio Rancho, NM",-106.6981,35.2872,"Hanover, PA",-76.9835,39.8117
269,"Hialeah, FL",-80.3046,25.8696,"Alton, IL",-90.1523,38.9034,"Edina, MN",-93.3602,44.8914
270,"Kingston, NY",-73.9968,41.9295,"Chandler, AZ",-111.8516,33.2826,"League City, TX",-95.1087,29.4873
271,"Hesperia, CA",-117.3147,34.3975,"Upland, CA",-117.6603,34.1178,"San Tan Valley, AZ",-111.5472,33.1879
272,"Harrisonburg, VA",-78.8735,38.4361,"Bozeman, MT",-111.0552,45.6832,"Wheeling, WV",-80.6951,40.0752
273,"Kendale Lakes, FL",-80.4078,25.7081,"Newark, NJ",-74.1725,40.7245,"Bryan, TX",-96.3668,30.6657
274,"Danbury, CT",-73.471,41.4016,"Bethlehem, PA",-75.3679,40.6266,"Springfield, IL",-89.6538,39.771
275,"Lansing, MI",-84.5601,42.7142,"Fremont, CA",-121.9852,37.5265,"Chandler, AZ",-111.8516,33.2826
276,"Stockton, CA",-121.3109,37.9765,"Brentwood, NY",-73.2522,40.7839,"Stillwater, OK",-97.074,36.1316
277,"Palm Bay, FL",-80.6627,27.955,"Oxnard, CA",-119.1815,34.1963,"Texarkana, TX",-94.0815,33.4487
278,"Amarillo, TX",-101.8311,35.1988,"Sandy Springs, GA",-84.3703,33.9366,"Bozeman, MT",-111.0552,45.6832
279,"Glendora, CA",-117.8468,34.1449,"Overland Park, KS",-94.687,38.887,"Alafaya, FL",-81.1865,28.5278
280,"Bethesda, MD",-77.1188,38.9866,"Columbia, MD",-76.859,39.2004,"Lakewood, CA",-118.1221,33.8471
281,"Lake Charles, LA",-93.2122,30.2012,"Homestead, FL",-80.4472,25.4665,"Duluth, MN",-92.1392,46.7756
282,"Lynwood, CA",-118.2017,33.924,"Dale City, VA",-77.3459,38.6473,"Lacey, WA",-122.7934,47.046
283,"Port Arthur, TX",-93.9264,29.8554,"Clearwater, FL",-82.7622,27.9789,"Columbus, OH",-82.985,39.9862
284,"Bethlehem, PA",-75.3679,40.6266,"Hialeah, FL",-80.3046,25.8696,"Rocklin, CA",-121.2488,38.8075
285,"Lake Elsinore, CA",-117.3344,33.6847,"Miami, FL",-80.2102,25.7839,"Auburn, WA",-122.2108,47.3039
286,"Brunswick, GA",-81.474,31.145,"Beloit, WI",-89.0184,42.523,"Henderson, NV",-115.038,36.0133
287,"Lynn, MA",-70.9663,42.4779,"Casper, WY",-106.3207,42.842,"Taylorsville, UT",-111.9493,40.657
288,"Seaside, CA",-121.8191,36.6224,"Glendora, CA",-117.8468,34.1449,"Greeley, CO",-104.7706,40.4151
289,"Louisville, KY",-85.6485,38.1663,"Kendale Lakes, FL",-80.4078,25.7081,"Morristown, TN",-83.3006,36.2046
290,"Daly City, CA",-122.4685,37.6862,"Huntersville, NC",-80.8727,35.4058,"Garland, TX",-96.6305,32.91
291,"Portland, ME",-70.2715,43.6773,"Wilmington, DE",-75.5413,39.7415,"Davis, CA",-121.7365,38.5552
292,"Binghamton, NY",-75.9093,42.1014,"Rochester, MN",-92.4778,44.0151,"Round Lake Beach, IL",-88.0811,42.379
293,"Summerville, SC",-80.1799,33.0015,"Myrtle Beach, SC",-78.8843,33.7096,"Skokie, IL",-87.74,42.0359
294,"Atascocita, TX",-95.1953,29.9777,"Bellevue, WA",-122.1535,47.5951,"Monessen, PA",-79.8828,40.1519
295,"Orland Park, IL",-87.8619,41.6074,"Salem, OR",-123.0246,44.9231,"Cathedral City, CA",-116.4642,33.8363
296,"Taunton, MA",-71.0943,41.9036,"Largo, FL",-82.7711,27.9088,"Winchester, VA",-78.1746,39.1735
297,"Brunswick, GA",-81.474,31.145,"Springdale, AR",-94.1574,36.1899,"North Las Vegas, NV",-115.0901,36.288
298,"The Woodlands, TX",-95.5134,30.1738,"Meridian, ID",-116.3968,43.6112,"Johns Creek, GA",-84.2027,34.0333
299,"Petaluma, CA",-122.6267,38.2423,"Fall River, MA",-71.1014,41.7137,"Vacaville, CA",-121.968,38.359
300,"Chambersburg, PA",-77.6556,39.9315,"Sahuarita, AZ",-110.9654,31.9323,"Lewisville, TX",-96.9823,33.0452
301,"San Francisco, CA",-122.443,37.7562,"Midwest City, OK",-97.3709,35.463,"Westminster, CA",-117.9938,33.7523
302,"Norwalk, CT",-73.4215,41.1144,"Pittsburgh, PA",-79.9762,40.4396,"Spring Valley, NV",-115.2619,36.0987
303,"Surprise, AZ",-112.4524,33.68,"Rosemead, CA",-118.0823,34.0689,"Joplin, MO",-94.5018,37.0758
304,"Dalton, GA",-84.9712,34.769,"High Point, NC",-79.9938,35.9907,"Rockville, MD",-77.1552,39.0834
305,"Leominster, MA",-71.7717,42.5209,"Baldwin Park, CA",-117.9721,34.0829,"Lafayette, CO",-105.0997,39.9949
306,"Oceanside, CA",-117.3083,33.2247,"Westland, MI",-83.3805,42.3192,"Las Vegas, NV",-115.2654,36.2333
307,"Bloomington, MN",-93.3151,44.8306,"Davis, CA",-121.7365,38.5552,"Rogers, AR",-94.1526,36.3172
308,"Mayag체ez, PR",-67.1397,18.2003,"Dale City, VA",-77.3459,38.6473,"Chapel Hill, NC",-79.0391,35.927
309,"Kennewick, WA",-119.1732,46.1978,"Fremont, CA",-121.9852,37.5265,"Orland Park, IL",-87.8619,41.6074
310,"North Las Vegas, NV",-115.0901,36.288,"Aloha, OR",-122.8726,45.492,"Collierville, TN",-89.6988,35.0471
311,"Cranston, RI",-71.4857,41.7658,"Inglewood, CA",-118.3444,33.9566,"Austin, TX",-97.7522,30.3004
312,"Monterey Park, CA",-118.1326,34.0497,"Fullerton, CA",-117.9279,33.8841,"Fort Smith, AR",-94.3695,35.3493
313,"Wausau, WI",-89.6459,44.962,"Springfield, MO",-93.2916,37.1943,"Highland, CA",-117.1654,34.1113
314,"La Mesa, CA",-117.0204,32.7703,"Asheville, NC",-82.5536,35.5704,"Lancaster, CA",-118.1753,34.6935
315,"Plantation, FL",-80.2617,26.126,"Grand Prairie, TX",-97.0209,32.6872,"Clovis, CA",-119.6831,36.8278
316,"Apple Valley, CA",-117.2104,34.5328,"Bloomington, MN",-93.3151,44.8306,"New York, NY",-73.9249,40.6943
317,"Vancouver, WA",-122.5967,45.6366,"Bloomington, IN",-86.5257,39.1637,"Columbia, SC",-80.9037,34.0376
318,"Margate, FL",-80.2119,26.2466,"Waldorf, MD",-76.9195,38.6085,"Pottstown, PA",-75.6444,40.2507
319,"Cary, NC",-78.8191,35.782,"Staunton, VA",-79.0611,38.1593,"Santa Rosa, CA",-122.7067,38.4458
320,"Lakewood, WA",-122.5299,47.1628,"Panama City, FL",-85.6004,30.1995,"Fall River, MA",-71.1014,41.7137
321,"Spring, TX",-95.383,30.0613,"Oshkosh, WI",-88.5619,44.0228,"Palm Beach Gardens, FL",-80.1679,26.8466
322,"Grapevine, TX",-97.0744,32.9343,"Germantown, MD",-77.2643,39.1755,"Indianapolis, IN",-86.1458,39.7771
323,"Richardson, TX",-96.7093,32.9717,"Athens, GA",-83.3689,33.9508,"Dover, DE",-75.5203,39.161
324,"Arlington, TX",-97.125,32.6998,"Commerce City, CO",-104.8434,39.8642,"Pittsburgh, PA",-79.9762,40.4396
325,"Athens, GA",-83.3689,33.9508,"Kennewick, WA",-119.1732,46.1978,"Wichita Falls, TX",-98.5291,33.9072
326,"Baldwin Park, CA",-117.9721,34.0829,"St. Joseph, MO",-94.821,39.7599,"Yonkers, NY",-73.8674,40.9466
327,"Staunton, VA",-79.0611,38.1593,"Manhattan, NY",-73.9662,40.7834,"Bradenton, FL",-82.5739,27.49
328,"Kingston, NY",-73.9968,41.9295,"Orlando, FL",-81.3369,28.4772,"South San Francisco, CA",-122.4197,37.6536
329,"Fairfield, CA",-122.0324,38.2592,"Centreville, VA",-77.4388,38.8391,"Warner Robins, GA",-83.6529,32.597
330,"Vineland, NJ",-74.9981,39.4653,"Lakeville, MN",-93.252,44.6774,"Bethesda, MD",-77.1188,38.9866
331,"Pasadena, TX",-95.1499,29.6583,"West Valley City, UT",-112.0115,40.6889,"Vancouver, WA",-122.5967,45.6366
332,"Rogers, AR",-94.1526,36.3172,"Pharr, TX",-98.1904,26.1685,"Columbus, GA",-84.8771,32.51
333,"Des Plaines, IL",-87.9009,42.0345,"Cupertino, CA",-122.0465,37.3168,"Palm Desert, CA",-116.3695,33.7378
334,"Dayton, OH",-84.1998,39.7797,"Surprise, AZ",-112.4524,33.68,"Raleigh, NC",-78.6435,35.8325
335,"Wylie, TX",-96.5161,33.0362,"Longmont, CO",-105.1005,40.1686,"Hacienda Heights, CA",-117.9728,33.997
336,"Waco, TX",-97.1881,31.5598,"Grand Forks, ND",-97.0886,47.9218,"Gastonia, NC",-81.1853,35.2494
337,"Fond du Lac, WI",-88.4396,43.7718,"Corona, CA",-117.5649,33.8616,"Stamford, CT",-73.5583,41.1035
338,"Schenectady, NY",-73.9276,42.8025,"Kansas City, KS",-94.7443,39.1234,"Huntington Beach, CA",-118.0025,33.696
339,"Grand Forks, ND",-97.0886,47.9218,"Fayetteville, AR",-94.166,36.0713,"Casas Adobes, AZ",-111.0114,32.3423
340,"Porterville, CA",-119.0338,36.0644,"Missoula, MT",-114.0214,46.875,"Malden, MA",-71.0576,42.4305
341,"Corpus Christi, TX",-97.3755,27.726,"Green Bay, WI",-87.9896,44.515,"Miami Beach, FL",-80.1396,25.8171
342,"Denver, CO",-104.8759,39.7621,"Gainesville, GA",-83.8301,34.2903,"Southfield, MI",-83.2605,42.4765
343,"Encinitas, CA",-117.2613,33.049,"Boston, MA",-71.0846,42.3188,"Florence-Graham, CA",-118.2447,33.9682
344,"Cambridge, MA",-71.1185,42.3759,"Clifton, NJ",-74.1575,40.8631,"Gainesville, FL",-82.3458,29.6804
345,"Marietta, GA",-84.5422,33.9533,"Ellicott City, MD",-76.8344,39.2773,"Maple Grove, MN",-93.4626,45.1089
346,"Palo Alto, CA",-122.1468,37.3913,"Bethesda, MD",-77.1188,38.9866,"Gainesville, GA",-83.8301,34.2903
347,"Myrtle Beach, SC",-78.8843,33.7096,"Slidell, LA",-89.7826,30.2881,"Rock Hill, SC",-81.0244,34.9416
348,"Santa Maria, CA",-120.4432,34.9334,"St. Augustine, FL",-81.31,29.8977,"Rapid City, SD",-103.2204,44.0716
349,"Deltona, FL",-81.2137,28.905,"Costa Mesa, CA",-117.9135,33.6667,"Brentwood, CA",-121.7191,37.9355
350,"Coeur d'Alene, ID",-116.7935,47.7041,"Fremont, CA",-121.9852,37.5265,"Memphis, TN",-89.9773,35.1046
351,"Greenwood, IN",-86.1073,39.6019,"Midwest City, OK",-97.3709,35.463,"Port Arthur, TX",-93.9264,29.8554
352,"Bangor, ME",-68.7906,44.8322,"Hanford, CA",-119.6549,36.3274,"Palm Harbor, FL",-82.7481,28.0847
353,"Warren, MI",-83.027,42.4934,"Cedar Rapids, IA",-91.6782,41.9665,"Charleston, SC",-79.9628,32.8153
354,"Suffolk, VA",-76.6398,36.6953,"Rogers, AR",-94.1526,36.3172,"Pasadena, CA",-118.139,34.1597
355,"Santa Maria, CA",-120.4432,34.9334,"Norwalk, CA",-118.0829,33.9069,"Myrtle Beach, SC",-78.8843,33.7096
356,"High Point, NC",-79.9938,35.9907,"Carson, CA",-118.2559,33.8374,"Plantation, FL",-80.2617,26.126
357,"Kendale Lakes, FL",-80.4078,25.7081,"Denton, TX",-97.1419,33.2176,"Pueblo, CO",-104.6112,38.2705
358,"Alameda, CA",-122.2672,37.767,"Twin Falls, ID",-114.4615,42.5645,"Orland Park, IL",-87.8619,41.6074
359,"Milwaukee, WI",-87.9673,43.0642,"Carmel, IN",-86.146,39.965,"West Allis, WI",-88.0296,43.0068
360,"Casper, WY",-106.3207,42.842,"Iowa City, IA",-91.5303,41.6559,"Norwalk, CA",-118.0829,33.9069
361,"Fountainebleau, FL",-80.3458,25.7723,"Waltham, MA",-71.2423,42.3889,"Salinas, CA",-121.6317,36.6884
362,"Silver Spring, MD",-77.0207,39.0028,"Lakewood, CA",-118.1221,33.8471,"Framingham, MA",-71.4368,42.3085
363,"Forney, TX",-96.4529,32.744,"Bangor, ME",-68.7906,44.8322,"Merced, CA",-120.4778,37.3057
364,"Poughkeepsie, NY",-73.921,41.6949,"Sierra Vista, AZ",-110.3153,31.563,"San Clemente, CA",-117.6103,33.4498
365,"Sioux City, IA",-96.3901,42.4959,"Duluth, MN",-92.1392,46.7756,"Sierra Vista, AZ",-110.3153,31.563
366,"Hacienda Heights, CA",-117.9728,33.997,"Augusta, GA",-82.0708,33.3645,"Daytona Beach, FL",-81.0982,29.1994
367,"Palm Bay, FL",-80.6627,27.955,"Woodland, CA",-121.75,38.6712,"Newark, OH",-82.4251,40.0705
368,"Hammond, IN",-87.491,41.6169,"Pittsburg, CA",-121.8964,38.0182,"Fargo, ND",-96.8292,46.8652
369,"Grand Forks, ND",-97.0886,47.9218,"Greensboro, NC",-79.8269,36.0956,"Nampa, ID",-116.5631,43.5845
370,"North Richland Hills, TX",-97.218,32.8605,"Anniston, AL",-85.8136,33.6712,"Flint, MI",-83.6922,43.0235
371,"Palm Harbor, FL",-82.7481,28.0847,"Moreno Valley, CA",-117.2045,33.9244,"Greenville, NC",-77.3768,35.5956
372,"Eastvale, CA",-117.5802,33.9617,"Meriden, CT",-72.7944,41.5367,"Spartanburg, SC",-81.9257,34.9437
373,"Evanston, IL",-87.6942,42.0463,"Sparks, NV",-119.7157,39.5729,"Davie, FL",-80.287,26.0789
374,"North Charleston, SC",-80.0722,32.9066,"Farmington Hills, MI",-83.3771,42.486,"Denton, TX",-97.1419,33.2176
375,"Dover, NH",-70.8845,43.1887,"Houston, TX",-95.3889,29.7863,"Lompoc, CA",-120.4714,34.6618
376,"Moore, OK",-97.4758,35.3293,"Goodyear, AZ",-112.3622,33.2613,"St. Cloud, MN",-94.1718,45.5339
377,"Fargo, ND",-96.8292,46.8652,"Denton, TX",-97.1419,33.2176,"Oshkosh, WI",-88.5619,44.0228
378,"Milwaukee, WI",-87.9673,43.0642,"Brockton, MA",-71.0242,42.0821,"Overland Park, KS",-94.687,38.887
379,"Waterbury, CT",-73.0361,41.5583,"Pontiac, MI",-83.2878,42.6493,"Kingston, NY",-73.9968,41.9295
380,"Amarillo, TX",-101.8311,35.1988,"Shawnee, KS",-94.8076,39.0158,"Lansing, MI",-84.5601,42.7142
381,"Weirton, WV",-80.5671,40.406,"Evansville, IN",-87.5341,37.9881,"Santa Barbara, CA",-119.7202,34.4285
382,"Casas Adobes, AZ",-111.0114,32.3423,"Wheeling, WV",-80.6951,40.0752,"Bowling Green, KY",-86.4373,36.9719
383,"Murrieta, CA",-117.1909,33.572,"Pocatello, ID",-112.4646,42.8724,"Buckeye, AZ",-112.6429,33.4314
384,"Denton, TX",-97.1419,33.2176,"Jackson, TN",-88.8353,35.6535,"Glendora, CA",-117.8468,34.1449
385,"San Bernardino, CA",-117.2946,34.1417,"Owensboro, KY",-87.1173,37.7574,"Sumter, SC",-80.393,33.9392
386,"Shawnee, KS",-94.8076,39.0158,"Pembroke Pines, FL",-80.3382,26.0128,"Lawrence, KS",-95.2641,38.9597
387,"Canton, OH",-81.3677,40.8075,"Mansfield, TX",-97.1211,32.569,"La Crosse, WI",-91.2268,43.824
388,"Janesville, WI",-89.0136,42.6855,"Apopka, FL",-81.5304,28.7014,"Castro Valley, CA",-122.0631,37.7091
389,"Gulfport, MS",-89.0703,30.4271,"Centreville, VA",-77.4388,38.8391,"Riverview, FL",-82.3023,27.8227
390,"Yuma, AZ",-114.5488,32.5992,"Trenton, NJ",-74.7641,40.2236,"Asheville, NC",-82.5536,35.5704
391,"Bloomington, MN",-93.3151,44.8306,"Peabody, MA",-70.9724,42.5335,"Alton, IL",-90.1523,38.9034
392,"Lakewood, WA",-122.5299,47.1628,"San Juan, PR",-66.0636,18.4037,"Florence, AL",-87.6654,34.8303
393,"Salinas, CA",-121.6317,36.6884,"Santa Ana, CA",-117.8819,33.7366,"Waterloo, IA",-92.3522,42.492
394,"McAllen, TX",-98.2471,26.2273,"San Rafael, CA",-122.5222,37.9905,"Cranston, RI",-71.4857,41.7658
395,"Hemet, CA",-116.9969,33.7341,"Palm Beach Gardens, FL",-80.1679,26.8466,"Irving, TX",-96.9702,32.8584
396,"New Brunswick, NJ",-74.445,40.487,"Lowell, MA",-71.3217,42.6389,"Delray Beach, FL",-80.0905,26.455
397,"Grand Junction, CO",-108.5673,39.0876,"Kettering, OH",-84.1495,39.6957,"Kissimmee, FL",-81.4164,28.3042
398,"Saginaw, MI",-83.9501,43.4199,"Mesquite, TX",-96.5889,32.7623,"Lafayette, IN",-86.8594,40.399
399,"Novato, CA",-122.5576,38.092,"Mishawaka, IN",-86.1669,41.6736,"Apex, NC",-78.8728,35.7239
400,"Shawnee, KS",-94.8076,39.0158,"Winston-Salem, NC",-80.2611,36.1029,"Alafaya, FL",-81.1865,28.5278
401,"Lewisville, TX",-96.9823,33.0452,"League City, TX",-95.1087,29.4873,"Davenport, IA",-90.6052,41.5563
402,"Kalamazoo, MI",-85.5882,42.2749,"Omaha, NE",-96.0522,41.2627,"Beaumont, TX",-94.1451,30.0849
403,"Oshkosh, WI",-88.5619,44.0228,"Springdale, AR",-94.1574,36.1899,"Ellicott City, MD",-76.8344,39.2773
404,"Lima, OH",-84.1121,40.741,"Margate, FL",-80.2119,26.2466,"Brooklyn, NY",-73.9496,40.6501
405,"Bellflower, CA",-118.1271,33.888,"Poughkeepsie, NY",-73.921,41.6949,"Casas Adobes, AZ",-111.0114,32.3423
406,"South Hill, WA",-122.2848,47.1203,"Corpus Christi, TX",-97.3755,27.726,"Roanoke, VA",-79.958,37.2785
407,"The Hammocks, FL",-80.4483,25.67,"Pittsburg, CA",-121.8964,38.0182,"Midland, TX",-102.1137,32.0249
408,"Anniston, AL",-85.8136,33.6712,"Fort Wayne, IN",-85.1437,41.0886,"Pflugerville, TX",-97.6022,30.452
409,"Tulare, CA",-119.34,36.1996,"South Hill, WA",-122.2848,47.1203,"Pasadena, CA",-118.139,34.1597
410,"Brentwood, CA",-121.7191,37.9355,"Gilbert, AZ",-111.7463,33.3101,"Winter Haven, FL",-81.7017,28.0118
411,"Dover, NH",-70.8845,43.1887,"Springdale, AR",-94.1574,36.1899,"West Lafayette, IN",-86.9239,40.4432
412,"Santa Fe, NM",-105.9819,35.6619,"Lake Forest, CA",-117.6712,33.6606,"Tulare, CA",-119.34,36.1996
413,"Oceanside, CA",-117.3083,33.2247,"Lewiston, ME",-70.1681,44.0915,"Danbury, CT",-73.471,41.4016
414,"Fayetteville, NC",-78.9776,35.0846,"Greenville, SC",-82.3647,34.8353,"Skokie, IL",-87.74,42.0359
415,"Dearborn, MI",-83.2129,42.3127,"Antioch, CA",-121.7958,37.9789,"Bullhead City, AZ",-114.546,35.1205
416,"Edmond, OK",-97.4159,35.6689,"Baytown, TX",-94.9669,29.7586,"Seaside, CA",-121.8191,36.6224
417,"Collierville, TN",-89.6988,35.0471,"Bremerton, WA",-122.7122,47.5436,"Rocklin, CA",-121.2488,38.8075
418,"Lenexa, KS",-94.8018,38.9609,"Mayag체ez, PR",-67.1397,18.2003,"Clovis, CA",-119.6831,36.8278
419,"Conroe, TX",-95.4825,30.3239,"Hoffman Estates, IL",-88.1468,42.0639,"Middletown, NY",-74.4236,41.4459
420,"Union City, NJ",-74.0323,40.7674,"Elk Grove, CA",-121.3842,38.416,"Kannapolis, NC",-80.6403,35.4764
421,"Denton, TX",-97.1419,33.2176,"New Haven, CT",-72.9246,41.3112,"Pine Hills, FL",-81.4693,28.5818
422,"Casa Grande, AZ",-111.7624,32.9068,"Indio, CA",-116.2346,33.7346,"Plantation, FL",-80.2617,26.126
423,"DeSoto, TX",-96.8633,32.5992,"Albany, OR",-123.0966,44.6274,"Downey, CA",-118.1312,33.9379
424,"Sioux City, IA",-96.3901,42.4959,"Meridian, ID",-116.3968,43.6112,"Hesperia, CA",-117.3147,34.3975
425,"Casa Grande, AZ",-111.7624,32.9068,"York, PA",-76.7315,39.9651,"Blaine, MN",-93.2077,45.1696
426,"Menifee, CA",-117.1849,33.6909,"Huntsville, AL",-86.6412,34.6988,"Gardena, CA",-118.3073,33.8944
427,"Rancho Cordova, CA",-121.2523,38.574,"Kingston, NY",-73.9968,41.9295,"Schaumburg, IL",-88.0838,42.0307
428,"New Rochelle, NY",-73.7836,40.9305,"Orlando, FL",-81.3369,28.4772,"Coconut Creek, FL",-80.1842,26.2803
429,"Aspen Hill, MD",-77.0823,39.0928,"Stamford, CT",-73.5583,41.1035,"Rocklin, CA",-121.2488,38.8075
430,"Lakewood, CO",-105.1168,39.6977,"Lakewood, CA",-118.1221,33.8471,"Alexandria, LA",-92.4702,31.2923
431,"Johns Creek, GA",-84.2027,34.0333,"Muskegon, MI",-86.2563,43.2281,"Lake Jackson, TX",-95.4522,29.0516
432,"Yuma, AZ",-114.5488,32.5992,"Paramount, CA",-118.1652,33.8976,"Charlottesville, VA",-78.4855,38.0375
433,"La Crosse, WI",-91.2268,43.824,"Hot Springs, AR",-93.0501,34.4892,"Springfield, MA",-72.5395,42.1155
434,"Columbus, IN",-85.9183,39.2093,"Cedar Rapids, IA",-91.6782,41.9665,"Zephyrhills, FL",-82.1796,28.2408
435,"Bayonne, NJ",-74.1141,40.6661,"Mandeville, LA",-90.0904,30.3751,"Taylor, MI",-83.2688,42.226
436,"Kingsport, TN",-82.5453,36.5224,"Napa, CA",-122.3011,38.2976,"Ontario, CA",-117.6064,34.0393
437,"Springfield, OR",-122.981,44.0538,"Gaithersburg, MD",-77.2132,39.1346,"Tempe, AZ",-111.9318,33.3881
438,"Port Arthur, TX",-93.9264,29.8554,"Kokomo, IN",-86.1277,40.464,"Menifee, CA",-117.1849,33.6909
439,"Palm Desert, CA",-116.3695,33.7378,"Jacksonville, FL",-81.6749,30.3322,"Collierville, TN",-89.6988,35.0471
440,"Williamsburg, VA",-76.7076,37.2692,"Waterloo, IA",-92.3522,42.492,"Wylie, TX",-96.5161,33.0362
441,"Elgin, IL",-88.3229,42.0385,"Casas Adobes, AZ",-111.0114,32.3423,"Chicago, IL",-87.6862,41.8373
442,"Salt Lake City, UT",-111.9306,40.7777,"Clearwater, FL",-82.7622,27.9789,"Boynton Beach, FL",-80.0811,26.5281
443,"Bay City, MI",-83.8886,43.5903,"Edinburg, TX",-98.1596,26.3197,"Sunrise Manor, NV",-115.049,36.1785
444,"Cedar Rapids, IA",-91.6782,41.9665,"Lake Charles, LA",-93.2122,30.2012,"Warwick, RI",-71.4334,41.7062
445,"Warner Robins, GA",-83.6529,32.597,"Spartanburg, SC",-81.9257,34.9437,"Cedar Park, TX",-97.8196,30.5106
446,"Caldwell, ID",-116.6591,43.6453,"Lancaster, CA",-118.1753,34.6935,"St. Joseph, MO",-94.821,39.7599
447,"Paradise, NV",-115.1369,36.0807,"Beaumont, CA",-116.9766,33.9076,"Rockville, MD",-77.1552,39.0834
448,"Arlington, TX",-97.125,32.6998,"Round Rock, TX",-97.666,30.5254,"Albany, OR",-123.0966,44.6274
449,"Hagerstown, MD",-77.7217,39.6401,"Redlands, CA",-117.1712,34.0511,"Newark, OH",-82.4251,40.0705
450,"Reading, PA",-75.9267,40.34,"Wesley Chapel, FL",-82.3238,28.2106,"Fairfield, CA",-122.0324,38.2592
451,"Sherman, TX",-96.6218,33.6274,"Lafayette, LA",-92.0323,30.2084,"San Luis Obispo, CA",-120.6691,35.2669
452,"Bloomington, IN",-86.5257,39.1637,"Hoffman Estates, IL",-88.1468,42.0639,"Springfield, MO",-93.2916,37.1943
453,"Temecula, CA",-117.1315,33.4928,"Hampton, VA",-76.363,37.0551,"Pomona, CA",-117.7626,34.0585
454,"Royal Oak, MI",-83.1539,42.5084,"Lawrence, MA",-71.1626,42.7003,"Roseville, CA",-121.3196,38.7703
455,"Norman, OK",-97.3471,35.2335,"North Little Rock, AR",-92.2371,34.7808,"Burbank, CA",-118.3235,34.1879
456,"Canton, OH",-81.3677,40.8075,"Spring Valley, NV",-115.2619,36.0987,"Rock Hill, SC",-81.0244,34.9416
457,"Elkhart, IN",-85.9628,41.6916,"Beckley, WV",-81.1841,37.7878,"Vacaville, CA",-121.968,38.359
458,"Manhattan, NY",-73.9662,40.7834,"Highlands Ranch, CO",-104.9708,39.5419,"Monessen, PA",-79.8828,40.1519
459,"Chattanooga, TN",-85.2488,35.0657,"Westland, MI",-83.3805,42.3192,"Corona, CA",-117.5649,33.8616
460,"Asheville, NC",-82.5536,35.5704,"Peabody, MA",-70.9724,42.5335,"Spokane Valley, WA",-117.2346,47.6626
461,"Taylorsville, UT",-111.9493,40.657,"Scranton, PA",-75.6649,41.4044,"South Gate, CA",-118.1926,33.9448
462,"Diamond Bar, CA",-117.8161,33.9991,"Burien, WA",-122.3394,47.4762,"Milpitas, CA",-121.8921,37.4339
463,"Levittown, NY",-73.5125,40.7241,"High Point, NC",-79.9938,35.9907,"Carlsbad, CA",-117.2837,33.1247
464,"Ithaca, NY",-76.5032,42.4442,"Knoxville, TN",-83.9496,35.9692,"National City, CA",-117.0983,32.6654
465,"Perris, CA",-117.2233,33.7899,"Myrtle Beach, SC",-78.8843,33.7096,"Hickory, NC",-81.323,35.7425
466,"Santee, CA",-116.9851,32.8554,"Dayton, OH",-84.1998,39.7797,"Lewiston, ID",-116.9934,46.3934
467,"Corpus Christi, TX",-97.3755,27.726,"Flint, MI",-83.6922,43.0235,"Porterville, CA",-119.0338,36.0644
468,"Chesapeake, VA",-76.3024,36.6778,"Philadelphia, PA",-75.1339,40.0077,"Peoria, AZ",-112.2989,33.7844
469,"Meriden, CT",-72.7944,41.5367,"Grants Pass, OR",-123.3317,42.4333,"Harlingen, TX",-97.6976,26.1917
470,"Casas Adobes, AZ",-111.0114,32.3423,"Milwaukee, WI",-87.9673,43.0642,"San Clemente, CA",-117.6103,33.4498
471,"Jefferson City, MO",-92.1759,38.5676,"Savannah, GA",-81.1784,32.0281,"Mesquite, TX",-96.5889,32.7623
472,"Sunnyvale, CA",-122.0256,37.3836,"Yorba Linda, CA",-117.7714,33.889,"Springdale, AR",-94.1574,36.1899
473,"Trenton, NJ",-74.7641,40.2236,"Billings, MT",-108.5524,45.7891,"Mishawaka, IN",-86.1669,41.6736
474,"Twin Falls, ID",-114.4615,42.5645,"Loveland, CO",-105.0623,40.4166,"Bloomington, IL",-88.9703,40.4757
475,"Spring, TX",-95.383,30.0613,"Pompano Beach, FL",-80.1312,26.2428,"Clearwater, FL",-82.7622,27.9789
476,"St. Cloud, MN",-94.1718,45.5339,"Wyoming, MI",-85.7066,42.8909,"High Point, NC",-79.9938,35.9907
477,"Albuquerque, NM",-106.6464,35.1053,"Bethlehem, PA",-75.3679,40.6266,"Odessa, TX",-102.3406,31.8831
478,"Union City, CA",-122.0187,37.603,"Grand Forks, ND",-97.0886,47.9218,"Lynwood, CA",-118.2017,33.924
479,"Edinburg, TX",-98.1596,26.3197,"Santa Cruz, CA",-122.0346,36.9789,"Lewisville, TX",-96.9823,33.0452
480,"Delray Beach, FL",-80.0905,26.455,"Concord, CA",-122.0016,37.9722,"Hattiesburg, MS",-89.317,31.3074
481,"Little Rock, AR",-92.3576,34.7256,"South Lyon, MI",-83.6526,42.4614,"El Paso, TX",-106.4309,31.8479
482,"Charlottesville, VA",-78.4855,38.0375,"Zephyrhills, FL",-82.1796,28.2408,"Sioux City, IA",-96.3901,42.4959
483,"Montebello, CA",-118.1108,34.0155,"Fremont, CA",-121.9852,37.5265,"Paramount, CA",-118.1652,33.8976
484,"Texas City, TX",-94.9658,29.4128,"West Des Moines, IA",-93.7805,41.5522,"Dothan, AL",-85.4069,31.2335
485,"Lacey, WA",-122.7934,47.046,"Cookeville, TN",-85.5114,36.1484,"Corona, CA",-117.5649,33.8616
486,"Eagle Pass, TX",-100.484,28.7125,"Clifton, NJ",-74.1575,40.8631,"Houston, TX",-95.3889,29.7863
487,"Fort Lauderdale, FL",-80.1464,26.1412,"Lincoln, NE",-96.6788,40.809,"New Britain, CT",-72.7862,41.6758
488,"The Woodlands, TX",-95.5134,30.1738,"Cambridge, MA",-71.1185,42.3759,"Bellflower, CA",-118.1271,33.888
489,"Cleveland, TN",-84.8707,35.1817,"Joliet, IL",-88.1499,41.5189,"Rowland Heights, CA",-117.8911,33.9716
490,"Davis, CA",-121.7365,38.5552,"Parma, OH",-81.7286,41.3843,"Bethesda, MD",-77.1188,38.9866
491,"Riverview, FL",-82.3023,27.8227,"Olympia, WA",-122.8959,47.0417,"Harrisonburg, VA",-78.8735,38.4361
492,"Hollywood, FL",-80.1679,26.0294,"Galveston, TX",-94.891,29.2487,"West Valley City, UT",-112.0115,40.6889
493,"High Point, NC",-79.9938,35.9907,"Kokomo, IN",-86.1277,40.464,"North Las Vegas, NV",-115.0901,36.288
494,"Utica, NY",-75.226,43.0961,"Mesa, AZ",-111.718,33.4017,"Kissimmee, FL",-81.4164,28.3042
495,"Alhambra, CA",-118.1355,34.084,"Franklin, TN",-86.8525,35.9216,"Concord, CA",-122.0016,37.9722
496,"Wellington, FL",-80.2699,26.6461,"Richland, WA",-119.2938,46.2824,"Margate, FL",-80.2119,26.2466
497,"Bloomington, MN",-93.3151,44.8306,"Parkersburg, WV",-81.542,39.2624,"Columbia, MD",-76.859,39.2004
498,"Bentonville, AR",-94.2306,36.3546,"Allen, TX",-96.6735,33.1088,"Pocatello, ID",-112.4646,42.8724
499,"Orem, UT",-111.6992,40.2983,"Milpitas, CA",-121.8921,37.4339,"Waukegan, IL",-87.8716,42.3697
500,"Carbondale, IL",-89.2238,37.7221,"Salt Lake City, UT",-111.9306,40.7777,"Merced, CA",-120.4778,37.3057
501,"Altoona, PA",-78.4007,40.5082,"Escondido, CA",-117.0722,33.1347,"Hoover, AL",-86.8064,33.3754
502,"Albany, OR",-123.0966,44.6274,"Moore, OK",-97.4758,35.3293,"Carson City, NV",-119.7474,39.1512
503,"Georgetown, TX",-97.6953,30.6668,"Montgomery, AL",-86.2666,32.3473,"Towson, MD",-76.619,39.3944
504,"Pinellas Park, FL",-82.7078,27.8589,"Clovis, CA",-119.6831,36.8278,"Mayag체ez, PR",-67.1397,18.2003
505,"Arlington, VA",-77.1011,38.8786,"Lodi, CA",-121.2932,38.1218,"Palm Coast, FL",-81.246,29.5392
506,"Cranston, RI",-71.4857,41.7658,"Kentwood, MI",-85.5925,42.8852,"Bay City, MI",-83.8886,43.5903
507,"Provo, UT",-111.6457,40.2457,"Lehigh Acres, FL",-81.6388,26.612,"Longmont, CO",-105.1005,40.1686
508,"Reading, PA",-75.9267,40.34,"Amarillo, TX",-101.8311,35.1988,"Normal, IL",-88.9881,40.5218
509,"Avondale, AZ",-112.3236,33.3858,"Bismarck, ND",-100.7694,46.8144,"San Luis Obispo, CA",-120.6691,35.2669
510,"Collierville, TN",-89.6988,35.0471,"Margate, FL",-80.2119,26.2466,"West New York, NJ",-74.0093,40.7856
511,"National City, CA",-117.0983,32.6654,"Rome, GA",-85.1862,34.2661,"Margate, FL",-80.2119,26.2466
512,"Fresno, CA",-119.7941,36.7831,"Sioux Falls, SD",-96.732,43.5397,"West Palm Beach, FL",-80.1316,26.7468
513,"Boulder, CO",-105.2523,40.0249,"Ellicott City, MD",-76.8344,39.2773,"Dallas, TX",-96.7662,32.7936
514,"Rapid City, SD",-103.2204,44.0716,"Leominster, MA",-71.7717,42.5209,"Gulfport, MS",-89.0703,30.4271
515,"Pembroke Pines, FL",-80.3382,26.0128,"Maricopa, AZ",-112.0006,33.0404,"Grand Junction, CO",-108.5673,39.0876
516,"St. Peters, MO",-90.6061,38.7824,"Delray Beach, FL",-80.0905,26.455,"Brooklyn, NY",-73.9496,40.6501
517,"Davis, CA",-121.7365,38.5552,"Waterloo, IA",-92.3522,42.492,"Grand Island, NE",-98.3584,40.9214
518,"Overland Park, KS",-94.687,38.887,"North Little Rock, AR",-92.2371,34.7808,"Moreno Valley, CA",-117.2045,33.9244
519,"Sheboygan, WI",-87.7316,43.7403,"Westminster, CA",-117.9938,33.7523,"Eden Prairie, MN",-93.4595,44.8488
520,"Orange, CA",-117.8218,33.8038,"Stockton, CA",-121.3109,37.9765,"Fort Wayne, IN",-85.1437,41.0886
521,"Rock Hill, SC",-81.0244,34.9416,"South Whittier, CA",-118.0311,33.9336,"Seaside, CA",-121.8191,36.6224
522,"Jurupa Valley, CA",-117.4705,34.001,"Herriman, UT",-112.0171,40.4899,"Rochester, MN",-92.4778,44.0151
523,"Indio, CA",-116.2346,33.7346,"Madera, CA",-120.0782,36.9631,"Lehi, UT",-111.8726,40.4136
524,"Lakewood, WA",-122.5299,47.1628,"Los Lunas, NM",-106.7803,34.8115,"Milwaukee, WI",-87.9673,43.0642
525,"Goldsboro, NC",-77.972,35.3778,"Hickory, NC",-81.323,35.7425,"Chattanooga, TN",-85.2488,35.0657
526,"South Bend, IN",-86.2696,41.6767,"Clifton, NJ",-74.1575,40.8631,"Stonecrest, GA",-84.1372,33.6842
527,"Coeur d'Alene, ID",-116.7935,47.7041,"Tucson, AZ",-110.8782,32.1545,"Cape Coral, FL",-81.9956,26.6446
528,"Spring Valley, NV",-115.2619,36.0987,"Milford city , CT",-73.0625,41.2256,"Decatur, AL",-86.9906,34.573
529,"Kalamazoo, MI",-85.5882,42.2749,"Hattiesburg, MS",-89.317,31.3074,"Odessa, TX",-102.3406,31.8831
530,"Ames, IA",-93.6215,42.0259,"Lawrence, MA",-71.1626,42.7003,"Glendora, CA",-117.8468,34.1449
531,"Lake Forest, CA",-117.6712,33.6606,"Waukesha, WI",-88.2464,43.0087,"Wichita, KS",-97.3442,37.6896
532,"Novi, MI",-83.4893,42.4786,"Compton, CA",-118.2275,33.893,"Lauderhill, FL",-80.2242,26.1605
533,"Brentwood, CA",-121.7191,37.9355,"Rochester, MN",-92.4778,44.0151,"Cheyenne, WY",-104.79,41.1351
534,"San Mateo, CA",-122.3122,37.5521,"Tigard, OR",-122.7845,45.4237,"Norwich, CT",-72.0882,41.5495
535,"Cheyenne, WY",-104.79,41.1351,"Carson City, NV",-119.7474,39.1512,"Zephyrhills, FL",-82.1796,28.2408
536,"Rochester, MN",-92.4778,44.0151,"Youngstown, OH",-80.6463,41.0993,"Plantation, FL",-80.2617,26.126
537,"Great Falls, MT",-111.2995,47.5022,"Anderson, SC",-82.6479,34.5211,"North Las Vegas, NV",-115.0901,36.288
538,"Raleigh, NC",-78.6435,35.8325,"Glendora, CA",-117.8468,34.1449,"Winchester, VA",-78.1746,39.1735
539,"Harrisburg, PA",-76.8843,40.2752,"Beaumont, TX",-94.1451,30.0849,"Gilroy, CA",-121.5855,37.0047
540,"El Monte, CA",-118.0291,34.0739,"Caguas, PR",-66.0388,18.2319,"Pasadena, CA",-118.139,34.1597
541,"Levittown, NY",-73.5125,40.7241,"Sunrise, FL",-80.2997,26.1547,"Torrance, CA",-118.3417,33.8346
542,"Highland, CA",-117.1654,34.1113,"Fayetteville, NC",-78.9776,35.0846,"Sparks, NV",-119.7157,39.5729
543,"Provo, UT",-111.6457,40.2457,"Watertown, NY",-75.9094,43.9734,"Rosemead, CA",-118.0823,34.0689
544,"Kendale Lakes, FL",-80.4078,25.7081,"Kokomo, IN",-86.1277,40.464,"Lauderhill, FL",-80.2242,26.1605
545,"Cheyenne, WY",-104.79,41.1351,"Millcreek, UT",-111.8291,40.6892,"Kissimmee, FL",-81.4164,28.3042
546,"Lancaster, PA",-76.3012,40.0421,"Coon Rapids, MN",-93.3095,45.1755,"Haverhill, MA",-71.0871,42.7838
547,"Michigan City, IN",-86.8705,41.7099,"Elyria, OH",-82.1063,41.3761,"Jefferson City, MO",-92.1759,38.5676
548,"Gulfport, MS",-89.0703,30.4271,"Prescott Valley, AZ",-112.3176,34.5983,"Port St. Lucie, FL",-80.3883,27.2796
549,"Staunton, VA",-79.0611,38.1593,"Saginaw, MI",-83.9501,43.4199,"Lancaster, CA",-118.1753,34.6935
550,"Boulder, CO",-105.2523,40.0249,"Fort Collins, CO",-105.0656,40.5478,"Simi Valley, CA",-118.749,34.2663
551,"New Brunswick, NJ",-74.445,40.487,"Dale City, VA",-77.3459,38.6473,"Auburn, WA",-122.2108,47.3039
552,"Lewiston, ID",-116.9934,46.3934,"Pittsburgh, PA",-79.9762,40.4396,"San Juan, PR",-66.0636,18.4037
553,"Severn, MD",-76.6958,39.1355,"Hamilton, OH",-84.5653,39.3938,"Bronx, NY",-73.8662,40.8501
554,"Bartlett, TN",-89.8195,35.2337,"Farmington Hills, MI",-83.3771,42.486,"St. George, UT",-113.577,37.077
555,"New Haven, CT",-72.9246,41.3112,"Blacksburg, VA",-80.4279,37.23,"Abilene, TX",-99.7384,32.4543
556,"Zephyrhills, FL",-82.1796,28.2408,"Charlottesville, VA",-78.4855,38.0375,"Baldwin Park, CA",-117.9721,34.0829
557,"Washington, DC",-77.0163,38.9047,"Newton, MA",-71.2085,42.3316,"Hammond, LA",-90.4563,30.5061
558,"Pompano Beach, FL",-80.1312,26.2428,"Smyrna, GA",-84.5168,33.8633,"Lake Charles, LA",-93.2122,30.2012
559,"Mansfield, OH",-82.5275,40.7656,"Castro Valley, CA",-122.0631,37.7091,"South Gate, CA",-118.1926,33.9448
560,"Anchorage, AK",-149.1091,61.1508,"Passaic, NJ",-74.1282,40.8574,"Kenner, LA",-90.2549,30.0109
561,"Baytown, TX",-94.9669,29.7586,"Cupertino, CA",-122.0465,37.3168,"Ames, IA",-93.6215,42.0259
562,"Quincy, MA",-71.0183,42.2516,"Richardson, TX",-96.7093,32.9717,"Carbondale, IL",-89.2238,37.7221
563,"Burien, WA",-122.3394,47.4762,"Frederick, MD",-77.4141,39.4336,"Riverside, CA",-117.3948,33.9381
564,"Owensboro, KY",-87.1173,37.7574,"Madison, WI",-89.3931,43.0826,"South Jordan, UT",-111.9782,40.557
565,"Louisville, KY",-85.6485,38.1663,"Wheaton, IL",-88.1083,41.8561,"Manchester, NH",-71.4447,42.9848
566,"Owensboro, KY",-87.1173,37.7574,"Chico, CA",-121.8152,39.7575,"Mount Vernon, NY",-73.8291,40.9136
567,"Fullerton, CA",-117.9279,33.8841,"Yucaipa, CA",-117.0429,34.0336,"Bossier City, LA",-93.6666,32.5227
568,"Danbury, CT",-73.471,41.4016,"League City, TX",-95.1087,29.4873,"Watsonville, CA",-121.7706,36.9206
569,"Columbus, GA",-84.8771,32.51,"Hattiesburg, MS",-89.317,31.3074,"Union City, CA",-122.0187,37.603
570,"Hollywood, FL",-80.1679,26.0294,"Pittsburgh, PA",-79.9762,40.4396,"Savannah, GA",-81.1784,32.0281
571,"New York, NY",-73.9249,40.6943,"Garland, TX",-96.6305,32.91,"Apopka, FL",-81.5304,28.7014
572,"Madison, AL",-86.7626,34.7114,"Farmington Hills, MI",-83.3771,42.486,"Maple Grove, MN",-93.4626,45.1089
573,"Cleveland, OH",-81.6804,41.4767,"Newton, MA",-71.2085,42.3316,"DeKalb, IL",-88.7482,41.9313
574,"Vista, CA",-117.2386,33.1896,"Brooklyn, NY",-73.9496,40.6501,"Rockford, IL",-89.0641,42.2597
575,"Cathedral City, CA",-116.4642,33.8363,"Nashville, TN",-86.7843,36.1715,"Midland, MI",-84.2319,43.6241
576,"Chico, CA",-121.8152,39.7575,"Tyler, TX",-95.3062,32.3184,"Lake Charles, LA",-93.2122,30.2012
577,"Hartford, CT",-72.6834,41.7661,"Brockton, MA",-71.0242,42.0821,"Scottsdale, AZ",-111.8651,33.6872
578,"Memphis, TN",-89.9773,35.1046,"Moreno Valley, CA",-117.2045,33.9244,"Brentwood, CA",-121.7191,37.9355
579,"Baytown, TX",-94.9669,29.7586,"Woodland, CA",-121.75,38.6712,"Bloomington, IL",-88.9703,40.4757
580,"Fort Collins, CO",-105.0656,40.5478,"Peoria, AZ",-112.2989,33.7844,"Blacksburg, VA",-80.4279,37.23
581,"Alton, IL",-90.1523,38.9034,"Stockton, CA",-121.3109,37.9765,"Hammond, LA",-90.4563,30.5061
582,"Salt Lake City, UT",-111.9306,40.7777,"Lenexa, KS",-94.8018,38.9609,"Hazleton, PA",-75.9724,40.9504
583,"Redwood City, CA",-122.2252,37.5026,"Panama City, FL",-85.6004,30.1995,"Virginia Beach, VA",-76.0435,36.7335
584,"Tinley Park, IL",-87.805,41.567,"Novi, MI",-83.4893,42.4786,"Santa Fe, NM",-105.9819,35.6619
585,"Fishers, IN",-85.9661,39.9589,"Miami Gardens, FL",-80.2426,25.9433,"Bangor, ME",-68.7906,44.8322
586,"Sunrise Manor, NV",-115.049,36.1785,"Pottstown, PA",-75.6444,40.2507,"Yucaipa, CA",-117.0429,34.0336
587,"Fayetteville, AR",-94.166,36.0713,"Eden Prairie, MN",-93.4595,44.8488,"Pottstown, PA",-75.6444,40.2507
588,"San Marcos, TX",-97.9381,29.8736,"Columbia, SC",-80.9037,34.0376,"Lebanon, PA",-76.4227,40.3412
589,"Inglewood, CA",-118.3444,33.9566,"Washington, DC",-77.0163,38.9047,"Honolulu, HI",-157.846,21.3294
590,"Fresno, CA",-119.7941,36.7831,"Clifton, NJ",-74.1575,40.8631,"Staunton, VA",-79.0611,38.1593
591,"Bellevue, NE",-95.9357,41.1535,"Lehi, UT",-111.8726,40.4136,"Union City, CA",-122.0187,37.603
592,"Pasadena, TX",-95.1499,29.6583,"Warner Robins, GA",-83.6529,32.597,"Orland Park, IL",-87.8619,41.6074
593,"Minneapolis, MN",-93.2678,44.9635,"New Bedford, MA",-70.9428,41.6697,"Cupertino, CA",-122.0465,37.3168
594,"Southaven, MS",-89.9787,34.9514,"Carson, CA",-118.2559,33.8374,"Queens, NY",-73.7976,40.7498
595,"Milford, CT",-73.0616,41.2256,"Lexington, KY",-84.4587,38.0423,"St. Peters, MO",-90.6061,38.7824
596,"Redwood City, CA",-122.2252,37.5026,"Shawnee, KS",-94.8076,39.0158,"Williamsport, PA",-77.0371,41.2398
597,"Rancho Cucamonga, CA",-117.5666,34.1248,"Ithaca, NY",-76.5032,42.4442,"Perris, CA",-117.2233,33.7899
598,"Birmingham, AL",-86.7987,33.5277,"Albuquerque, NM",-106.6464,35.1053,"Hanover, PA",-76.9835,39.8117
599,"White Plains, NY",-73.7549,41.022,"Cheyenne, WY",-104.79,41.1351,"Danbury, CT",-73.471,41.4016
600,"Weymouth, MA",-70.9466,42.1984,"Tulsa, OK",-95.9042,36.1284,"Bangor, ME",-68.7906,44.8322
601,"Sugar Land, TX",-95.6357,29.5935,"Mount Pleasant, SC",-79.8204,32.8538,"Montgomery, AL",-86.2666,32.3473
602,"Ellicott City, MD",-76.8344,39.2773,"Moore, OK",-97.4758,35.3293,"Sacramento, CA",-121.4683,38.5667
603,"Carrollton, TX",-96.8999,32.989,"Fort Smith, AR",-94.3695,35.3493,"Eau Claire, WI",-91.4949,44.8199
604,"Athens, GA",-83.3689,33.9508,"Summerville, SC",-80.1799,33.0015,"Odessa, TX",-102.3406,31.8831
605,"Buffalo, NY",-78.8487,42.9016,"Spartanburg, SC",-81.9257,34.9437,"Weirton, WV",-80.5671,40.406
606,"Westland, MI",-83.3805,42.3192,"Sebring, FL",-81.453,27.477,"Peabody, MA",-70.9724,42.5335
607,"Millcreek, UT",-111.8291,40.6892,"Bellingham, WA",-122.4687,48.7543,"Hampton, VA",-76.363,37.0551
608,"Seattle, WA",-122.3244,47.6211,"Arlington, VA",-77.1011,38.8786,"Salinas, CA",-121.6317,36.6884
609,"Burien, WA",-122.3394,47.4762,"Odessa, TX",-102.3406,31.8831,"Grand Forks, ND",-97.0886,47.9218
610,"Mansfield, TX",-97.1211,32.569,"Bowling Green, KY",-86.4373,36.9719,"Richland, WA",-119.2938,46.2824
611,"South Hill, WA",-122.2848,47.1203,"Bayonne, NJ",-74.1141,40.6661,"Warren, MI",-83.027,42.4934
612,"Decatur, AL",-86.9906,34.573,"Nashua, NH",-71.491,42.7491,"Topeka, KS",-95.6955,39.0346
613,"Hoboken, NJ",-74.0279,40.7453,"Racine, WI",-87.8135,42.7274,"Miami Beach, FL",-80.1396,25.8171
614,"Manchester, NH",-71.4447,42.9848,"Greensboro, NC",-79.8269,36.0956,"Georgetown, TX",-97.6953,30.6668
615,"Pinellas Park, FL",-82.7078,27.8589,"Hazleton, PA",-75.9724,40.9504,"Fountain Valley, CA",-117.9514,33.7105
616,"Novi, MI",-83.4893,42.4786,"Ann Arbor, MI",-83.7312,42.2755,"Middletown, NY",-74.4236,41.4459
617,"Hacienda Heights, CA",-117.9728,33.997,"Buckeye, AZ",-112.6429,33.4314,"Raleigh, NC",-78.6435,35.8325
618,"Glens Falls, NY",-73.6459,43.3109,"San Jose, CA",-121.8486,37.3019,"Euless, TX",-97.0799,32.8508
619,"Anderson, IN",-85.6893,40.0891,"Lacey, WA",-122.7934,47.046,"Brownsville, TX",-97.4565,25.998
620,"Cary, NC",-78.8191,35.782,"New Haven, CT",-72.9246,41.3112,"Portland, ME",-70.2715,43.6773
621,"Palm Coast, FL",-81.246,29.5392,"Dover, DE",-75.5203,39.161,"Buffalo, NY",-78.8487,42.9016
622,"Watsonville, CA",-121.7706,36.9206,"Town 'n' Country, FL",-82.576,28.0108,"Vista, CA",-117.2386,33.1896
623,"Mount Vernon, WA",-122.3115,48.4202,"Lewisville, TX",-96.9823,33.0452,"El Monte, CA",-118.0291,34.0739
624,"Bentonville, AR",-94.2306,36.3546,"Redding, CA",-122.365,40.5698,"Allentown, PA",-75.4756,40.5961
625,"Beloit, WI",-89.0184,42.523,"San Marcos, CA",-117.1744,33.135,"West Haven, CT",-72.9672,41.2739
626,"Toledo, OH",-83.5822,41.6639,"Vallejo, CA",-122.2358,38.1133,"Waterbury, CT",-73.0361,41.5583
627,"Prescott Valley, AZ",-112.3176,34.5983,"Livermore, CA",-121.7608,37.6862,"Smyrna, GA",-84.5168,33.8633
628,"Spring Hill, FL",-82.53,28.4797,"Harrisonburg, VA",-78.8735,38.4361,"Casper, WY",-106.3207,42.842
629,"Lake Jackson, TX",-95.4522,29.0516,"Newark, NJ",-74.1725,40.7245,"Woodland, CA",-121.75,38.6712
630,"Albany, NY",-73.7987,42.6664,"Tamarac, FL",-80.2542,26.2056,"Alameda, CA",-122.2672,37.767
631,"Houma, LA",-90.7058,29.5799,"Gadsden, AL",-86.0156,34.009,"Warren, MI",-83.027,42.4934
632,"Benton Harbor, MI",-86.4488,42.1159,"Bronx, NY",-73.8662,40.8501,"Newark, OH",-82.4251,40.0705
633,"Pittsburgh, PA",-79.9762,40.4396,"Conroe, TX",-95.4825,30.3239,"Oshkosh, WI",-88.5619,44.0228
634,"Sunrise, FL",-80.2997,26.1547,"Hammond, IN",-87.491,41.6169,"Tulare, CA",-119.34,36.1996
635,"Hanover, PA",-76.9835,39.8117,"St. Joseph, MO",-94.821,39.7599,"Laguna Niguel, CA",-117.705,33.5275
636,"Davenport, IA",-90.6052,41.5563,"South Jordan, UT",-111.9782,40.557,"Maricopa, AZ",-112.0006,33.0404
637,"New Braunfels, TX",-98.1148,29.6994,"Atlanta, GA",-84.4224,33.7627,"Hinesville, GA",-81.6135,31.8247
638,"Danbury, CT",-73.471,41.4016,"Hendersonville, TN",-86.5998,36.3063,"Kenner, LA",-90.2549,30.0109
639,"Port Orange, FL",-81.0137,29.1084,"Fort Myers, FL",-81.8303,26.6195,"Arlington, TX",-97.125,32.6998
640,"Petaluma, CA",-122.6267,38.2423,"Woodbury, MN",-92.923,44.9056,"Escondido, CA",-117.0722,33.1347
641,"San Juan, PR",-66.0636,18.4037,"Plymouth, MN",-93.4618,45.0225,"Kendale Lakes, FL",-80.4078,25.7081
642,"Denton, TX",-97.1419,33.2176,"Madera, CA",-120.0782,36.9631,"Santee, CA",-116.9851,32.8554
643,"Waltham, MA",-71.2423,42.3889,"Killeen, TX",-97.7296,31.0754,"Midland, MI",-84.2319,43.6241
644,"Brooklyn Park, MN",-93.3505,45.1112,"Stonecrest, GA",-84.1372,33.6842,"Sparks, NV",-119.7157,39.5729
645,"Nampa, ID",-116.5631,43.5845,"Grand Island, NE",-98.3584,40.9214,"Knoxville, TN",-83.9496,35.9692
646,"St. Cloud, FL",-81.2829,28.2294,"Garland, TX",-96.6305,32.91,"Florence-Graham, CA",-118.2447,33.9682
647,"Aspen Hill, MD",-77.0823,39.0928,"Mesa, AZ",-111.718,33.4017,"Harlingen, TX",-97.6976,26.1917
648,"Scranton, PA",-75.6649,41.4044,"Carlsbad, CA",-117.2837,33.1247,"College Station, TX",-96.296,30.5852
649,"Layton, UT",-111.9621,41.0769,"Taylorsville, UT",-111.9493,40.657,"Pleasanton, CA",-121.8805,37.6663
650,"Livonia, MI",-83.3733,42.3972,"Lenexa, KS",-94.8018,38.9609,"New Brunswick, NJ",-74.445,40.487
651,"Spring, TX",-95.383,30.0613,"Knoxville, TN",-83.9496,35.9692,"Philadelphia, PA",-75.1339,40.0077
652,"Hampton, VA",-76.363,37.0551,"College Station, TX",-96.296,30.5852,"Tacoma, WA",-122.4531,47.2431
653,"Taylor, MI",-83.2688,42.226,"Oakland, CA",-122.2165,37.7903,"Glendale, CA",-118.2468,34.1818
654,"Miami Gardens, FL",-80.2426,25.9433,"Mission, TX",-98.3251,26.2041,"St. George, UT",-113.577,37.077
655,"Nashville, TN",-86.7843,36.1715,"Mesa, AZ",-111.718,33.4017,"Brentwood, CA",-121.7191,37.9355
656,"Gadsden, AL",-86.0156,34.009,"Malden, MA",-71.0576,42.4305,"Chula Vista, CA",-117.0145,32.6281
657,"Westminster, CA",-117.9938,33.7523,"Boynton Beach, FL",-80.0811,26.5281,"Brooklyn Park, MN",-93.3505,45.1112
658,"Coeur d'Alene, ID",-116.7935,47.7041,"Poinciana, FL",-81.482,28.1217,"Hoboken, NJ",-74.0279,40.7453
659,"Minnetonka, MN",-93.4598,44.9322,"Fairbanks, AK",-147.6534,64.8353,"Davis, CA",-121.7365,38.5552
660,"White Plains, NY",-73.7549,41.022,"Olympia, WA",-122.8959,47.0417,"Elizabeth, NJ",-74.1912,40.6657
661,"Columbia, MO",-92.3256,38.9478,"Ames, IA",-93.6215,42.0259,"Plantation, FL",-80.2617,26.126
662,"Eau Claire, WI",-91.4949,44.8199,"East Orange, NJ",-74.2117,40.7651,"Jackson, TN",-88.8353,35.6535
663,"Salem, OR",-123.0246,44.9231,"Bozeman, MT",-111.0552,45.6832,"Fall River, MA",-71.1014,41.7137
664,"Scranton, PA",-75.6649,41.4044,"Palo Alto, CA",-122.1468,37.3913,"Rancho Cordova, CA",-121.2523,38.574
665,"Fort Myers, FL",-81.8303,26.6195,"Texarkana, TX",-94.0815,33.4487,"Rochester, NY",-77.6162,43.168
666,"Yucaipa, CA",-117.0429,34.0336,"Carmichael, CA",-121.323,38.6337,"Pflugerville, TX",-97.6022,30.452
667,"Jacksonville, NC",-77.3941,34.7288,"Hemet, CA",-116.9969,33.7341,"Rock Hill, SC",-81.0244,34.9416
668,"Moore, OK",-97.4758,35.3293,"Newark, OH",-82.4251,40.0705,"Sarasota, FL",-82.5431,27.3386
669,"Clearwater, FL",-82.7622,27.9789,"Houma, LA",-90.7058,29.5799,"Shawnee, KS",-94.8076,39.0158
670,"Santa Ana, CA",-117.8819,33.7366,"Pasadena, TX",-95.1499,29.6583,"San Diego, CA",-117.1225,32.8312
671,"Hayward, CA",-122.0772,37.6328,"Huntersville, NC",-80.8727,35.4058,"Chapel Hill, NC",-79.0391,35.927
672,"Rosemead, CA",-118.0823,34.0689,"East Orange, NJ",-74.2117,40.7651,"Colton, CA",-117.3254,34.0538
673,"Elizabethtown, KY",-85.877,37.703,"Kokomo, IN",-86.1277,40.464,"Coral Springs, FL",-80.2591,26.2702
674,"Casa Grande, AZ",-111.7624,32.9068,"Eastvale, CA",-117.5802,33.9617,"Winchester, VA",-78.1746,39.1735
675,"South Fulton, GA",-84.5802,33.6269,"Westminster, CO",-105.0624,39.8837,"Eau Claire, WI",-91.4949,44.8199
676,"Antioch, CA",-121.7958,37.9789,"Grants Pass, OR",-123.3317,42.4333,"Lewiston, ME",-70.1681,44.0915
677,"Lewiston, ID",-116.9934,46.3934,"Corvallis, OR",-123.278,44.5697,"Tamiami, FL",-80.4016,25.7556
678,"Evansville, IN",-87.5341,37.9881,"Clarksville, TN",-87.342,36.5695,"McKinney, TX",-96.6669,33.2015
679,"Frederick, MD",-77.4141,39.4336,"South Fulton, GA",-84.5802,33.6269,"Casas Adobes, AZ",-111.0114,32.3423
680,"St. Augustine, FL",-81.31,29.8977,"Lake Havasu City, AZ",-114.3113,34.5006,"Gilbert, AZ",-111.7463,33.3101
681,"Rowland Heights, CA",-117.8911,33.9716,"Lake Charles, LA",-93.2122,30.2012,"Middletown, OH",-84.366,39.5032
682,"Tracy, CA",-121.4522,37.7269,"League City, TX",-95.1087,29.4873,"Fort Wayne, IN",-85.1437,41.0886
683,"Federal Way, WA",-122.3358,47.3091,"Ankeny, IA",-93.6033,41.7285,"Encinitas, CA",-117.2613,33.049
684,"Marietta, GA",-84.5422,33.9533,"Port Orange, FL",-81.0137,29.1084,"San Luis Obispo, CA",-120.6691,35.2669
685,"Warwick, RI",-71.4334,41.7062,"Frisco, TX",-96.8215,33.1555,"Lawrence, KS",-95.2641,38.9597
686,"Chula Vista, CA",-117.0145,32.6281,"Decatur, IL",-88.9337,39.8556,"Austin, TX",-97.7522,30.3004
687,"Columbia, MD",-76.859,39.2004,"Wausau, WI",-89.6459,44.962,"Daly City, CA",-122.4685,37.6862
688,"Wichita, KS",-97.3442,37.6896,"East Orange, NJ",-74.2117,40.7651,"Chattanooga, TN",-85.2488,35.0657
689,"New Braunfels, TX",-98.1148,29.6994,"Temecula, CA",-117.1315,33.4928,"Grand Island, NE",-98.3584,40.9214
690,"Coral Springs, FL",-80.2591,26.2702,"Panama City, FL",-85.6004,30.1995,"Kannapolis, NC",-80.6403,35.4764
691,"Twin Falls, ID",-114.4615,42.5645,"Philadelphia, PA",-75.1339,40.0077,"Mansfield, OH",-82.5275,40.7656
692,"Palm Desert, CA",-116.3695,33.7378,"McAllen, TX",-98.2471,26.2273,"Rancho Cucamonga, CA",-117.5666,34.1248
693,"Southfield, MI",-83.2605,42.4765,"Longview, TX",-94.7621,32.5193,"Santa Cruz, CA",-122.0346,36.9789
694,"Zephyrhills, FL",-82.1796,28.2408,"Mesa, AZ",-111.718,33.4017,"San Francisco, CA",-122.443,37.7562
695,"Aliso Viejo, CA",-117.7289,33.5792,"Guaynabo, PR",-66.1134,18.3839,"Alexandria, VA",-77.0861,38.8185
696,"Huntersville, NC",-80.8727,35.4058,"South San Francisco, CA",-122.4197,37.6536,"Guaynabo, PR",-66.1134,18.3839
697,"San Marcos, CA",-117.1744,33.135,"Lakewood, CA",-118.1221,33.8471,"Pembroke Pines, FL",-80.3382,26.0128
698,"Lawton, OK",-98.4203,34.6176,"Spring Hill, FL",-82.53,28.4797,"Albany, NY",-73.7987,42.6664
699,"Overland Park, KS",-94.687,38.887,"Lewisville, TX",-96.9823,33.0452,"Shoreline, WA",-122.3426,47.7564
700,"Orange, CA",-117.8218,33.8038,"Yucaipa, CA",-117.0429,34.0336,"Jersey City, NJ",-74.0682,40.7161
701,"Sunnyvale, CA",-122.0256,37.3836,"Rocky Mount, NC",-77.8048,35.9676,"Santa Ana, CA",-117.8819,33.7366
702,"Cathedral City, CA",-116.4642,33.8363,"Delray Beach, FL",-80.0905,26.455,"Buckeye, AZ",-112.6429,33.4314
703,"West Covina, CA",-117.9112,34.0555,"Mauldin, SC",-82.3005,34.7849,"West Palm Beach, FL",-80.1316,26.7468
704,"Round Rock, TX",-97.666,30.5254,"Sherman, TX",-96.6218,33.6274,"Mount Vernon, NY",-73.8291,40.9136
705,"Sherman, TX",-96.6218,33.6274,"Renton, WA",-122.1919,47.4784,"New Braunfels, TX",-98.1148,29.6994
706,"Roanoke, VA",-79.958,37.2785,"Jackson, MI",-84.4037,42.2431,"Leesburg, VA",-77.5544,39.1058
707,"Rowlett, TX",-96.5488,32.9157,"Lodi, CA",-121.2932,38.1218,"Joplin, MO",-94.5018,37.0758
708,"Longview, WA",-122.9629,46.1461,"Evansville, IN",-87.5341,37.9881,"Poughkeepsie, NY",-73.921,41.6949
709,"Beckley, WV",-81.1841,37.7878,"Johnson City, TN",-82.3803,36.3406,"Tustin, CA",-117.8106,33.7309
710,"Fort Lauderdale, FL",-80.1464,26.1412,"Wichita, KS",-97.3442,37.6896,"Knoxville, TN",-83.9496,35.9692
711,"Southfield, MI",-83.2605,42.4765,"Gardena, CA",-118.3073,33.8944,"Richmond, CA",-122.339,37.9477
712,"Casa Grande, AZ",-111.7624,32.9068,"Alexandria, LA",-92.4702,31.2923,"St. Cloud, FL",-81.2829,28.2294
713,"Mount Vernon, NY",-73.8291,40.9136,"Alafaya, FL",-81.1865,28.5278,"Pasadena, CA",-118.139,34.1597
714,"Williamsburg, VA",-76.7076,37.2692,"Lake Jackson, TX",-95.4522,29.0516,"Beaumont, TX",-94.1451,30.0849
715,"Harrisonburg, VA",-78.8735,38.4361,"Shreveport, LA",-93.7956,32.4656,"Coconut Creek, FL",-80.1842,26.2803
716,"Chino, CA",-117.6654,33.9836,"Lorain, OH",-82.184,41.4409,"Lakewood, WA",-122.5299,47.1628
717,"Springfield, MA",-72.5395,42.1155,"Beaverton, OR",-122.8168,45.4779,"Bryan, TX",-96.3668,30.6657
718,"White Plains, NY",-73.7549,41.022,"Monroe, LA",-92.0774,32.5183,"South Bend, IN",-86.2696,41.6767
719,"Clearwater, FL",-82.7622,27.9789,"Colorado Springs, CO",-104.7606,38.8674,"Lafayette, LA",-92.0323,30.2084
720,"Asheville, NC",-82.5536,35.5704,"Vallejo, CA",-122.2358,38.1133,"Logan, UT",-111.8419,41.74
721,"San Antonio, TX",-98.5253,29.4658,"Brandon, FL",-82.3,27.9367,"Dearborn, MI",-83.2129,42.3127
722,"Cleveland, TN",-84.8707,35.1817,"Hot Springs, AR",-93.0501,34.4892,"Union City, CA",-122.0187,37.603
723,"Levittown, PA",-74.853,40.1537,"Southaven, MS",-89.9787,34.9514,"Evansville, IN",-87.5341,37.9881
724,"San Tan Valley, AZ",-111.5472,33.1879,"Ogden, UT",-111.9682,41.2278,"Trenton, NJ",-74.7641,40.2236
725,"Anderson, IN",-85.6893,40.0891,"Schaumburg, IL",-88.0838,42.0307,"West Bend, WI",-88.1824,43.4184
726,"Bellflower, CA",-118.1271,33.888,"Cambridge, MA",-71.1185,42.3759,"San Leandro, CA",-122.1601,37.7071
727,"Jacksonville, FL",-81.6749,30.3322,"Castro Valley, CA",-122.0631,37.7091,"Mission Viejo, CA",-117.655,33.6095
728,"Cicero, IL",-87.7593,41.8445,"Dalton, GA",-84.9712,34.769,"Augusta, GA",-82.0708,33.3645
729,"Grand Rapids, MI",-85.6562,42.962,"Duluth, MN",-92.1392,46.7756,"Asheville, NC",-82.5536,35.5704
730,"Pensacola, FL",-87.1886,30.4427,"Guaynabo, PR",-66.1134,18.3839,"Frederick, MD",-77.4141,39.4336
731,"Berkeley, CA",-122.276,37.8723,"Beaumont, TX",-94.1451,30.0849,"Coeur d'Alene, ID",-116.7935,47.7041
732,"Lorain, OH",-82.184,41.4409,"Milford, CT",-73.0616,41.2256,"Rockville, MD",-77.1552,39.0834
733,"Highland, CA",-117.1654,34.1113,"Charleston, SC",-79.9628,32.8153,"Bellevue, NE",-95.9357,41.1535
734,"Winchester, VA",-78.1746,39.1735,"Beaverton, OR",-122.8168,45.4779,"Warren, MI",-83.027,42.4934
735,"Yuba City, CA",-121.6381,39.1357,"Norman, OK",-97.3471,35.2335,"Syracuse, NY",-76.1438,43.0409
736,"Kingston, NY",-73.9968,41.9295,"Poinciana, FL",-81.482,28.1217,"Mesquite, TX",-96.5889,32.7623
737,"Westminster, CA",-117.9938,33.7523,"Blaine, MN",-93.2077,45.1696,"Myrtle Beach, SC",-78.8843,33.7096
738,"Johns Creek, GA",-84.2027,34.0333,"Louisville, KY",-85.6485,38.1663,"St. Clair Shores, MI",-82.8957,42.4921
739,"Woodbury, MN",-92.923,44.9056,"Delray Beach, FL",-80.0905,26.455,"Edina, MN",-93.3602,44.8914
740,"West Sacramento, CA",-121.5504,38.5557,"Watsonville, CA",-121.7706,36.9206,"Quincy, MA",-71.0183,42.2516
741,"Abilene, TX",-99.7384,32.4543,"Vancouver, WA",-122.5967,45.6366,"Norman, OK",-97.3471,35.2335
742,"Arvada, CO",-105.1511,39.8321,"Napa, CA",-122.3011,38.2976,"Atlantic City, NJ",-74.4527,39.3797
743,"Alexandria, VA",-77.0861,38.8185,"Casa Grande, AZ",-111.7624,32.9068,"Johns Creek, GA",-84.2027,34.0333
744,"Wilmington, NC",-77.8866,34.21,"Buena Park, CA",-118.0046,33.8572,"Kingsport, TN",-82.5453,36.5224
745,"Paradise, NV",-115.1369,36.0807,"Tracy, CA",-121.4522,37.7269,"San Juan, PR",-66.0636,18.4037
746,"Lafayette, IN",-86.8594,40.399,"Redwood City, CA",-122.2252,37.5026,"Fullerton, CA",-117.9279,33.8841
747,"Layton, UT",-111.9621,41.0769,"Chino, CA",-117.6654,33.9836,"Reston, VA",-77.3461,38.9497
748,"Yuba City, CA",-121.6381,39.1357,"Huntersville, NC",-80.8727,35.4058,"Milford, CT",-73.0616,41.2256
749,"Concord, CA",-122.0016,37.9722,"San Marcos, TX",-97.9381,29.8736,"Bolingbrook, IL",-88.1019,41.6903
750,"Ankeny, IA",-93.6033,41.7285,"Rowland Heights, CA",-117.8911,33.9716,"St. Charles, MO",-90.5157,38.7954
751,"Rochester Hills, MI",-83.1563,42.6645,"Palm Coast, FL",-81.246,29.5392,"Wheaton, IL",-88.1083,41.8561
752,"Clifton, NJ",-74.1575,40.8631,"Garden Grove, CA",-117.9601,33.7787,"Holland, MI",-86.0985,42.7677
753,"National City, CA",-117.0983,32.6654,"Lima, OH",-84.1121,40.741,"Morgantown, WV",-79.9468,39.638
754,"Bethesda, MD",-77.1188,38.9866,"McKinney, TX",-96.6669,33.2015,"Columbus, IN",-85.9183,39.2093
755,"Salinas, CA",-121.6317,36.6884,"Pittsburg, CA",-121.8964,38.0182,"Santa Cruz, CA",-122.0346,36.9789
756,"Conroe, TX",-95.4825,30.3239,"St. Paul, MN",-93.104,44.9477,"Ithaca, NY",-76.5032,42.4442
757,"Gainesville, GA",-83.8301,34.2903,"Lincoln, NE",-96.6788,40.809,"Weston, FL",-80.4054,26.1006
758,"Odessa, TX",-102.3406,31.8831,"Schenectady, NY",-73.9276,42.8025,"Pasadena, TX",-95.1499,29.6583
759,"Glens Falls, NY",-73.6459,43.3109,"Escondido, CA",-117.0722,33.1347,"Yakima, WA",-120.5496,46.5923
760,"Lewiston, ID",-116.9934,46.3934,"Newark, NJ",-74.1725,40.7245,"Temple, TX",-97.3894,31.1076
761,"Goldsboro, NC",-77.972,35.3778,"Greeley, CO",-104.7706,40.4151,"Anderson, IN",-85.6893,40.0891
762,"Bay City, MI",-83.8886,43.5903,"Pasco, WA",-119.1304,46.2506,"Hattiesburg, MS",-89.317,31.3074
763,"San Angelo, TX",-100.4506,31.4424,"Cathedral City, CA",-116.4642,33.8363,"Tigard, OR",-122.7845,45.4237
764,"Albany, GA",-84.1762,31.5776,"Waukegan, IL",-87.8716,42.3697,"Lewiston, ME",-70.1681,44.0915
765,"Lawrence, KS",-95.2641,38.9597,"Pleasanton, CA",-121.8805,37.6663,"Wheaton, IL",-88.1083,41.8561
766,"Kendall, FL",-80.3556,25.6697,"Chino, CA",-117.6654,33.9836,"Citrus Heights, CA",-121.288,38.6948
767,"Bridgeport, CT",-73.1953,41.1918,"Altoona, PA",-78.4007,40.5082,"West Haven, CT",-72.9672,41.2739
768,"New Brunswick, NJ",-74.445,40.487,"Racine, WI",-87.8135,42.7274,"Provo, UT",-111.6457,40.2457
769,"Melbourne, FL",-80.6627,28.1085,"Vineland, NJ",-74.9981,39.4653,"Fredericksburg, VA",-77.4872,38.2992
770,"Milwaukee, WI",-87.9673,43.0642,"Iowa City, IA",-91.5303,41.6559,"Sumter, SC",-80.393,33.9392
771,"Alexandria, LA",-92.4702,31.2923,"Parker, CO",-104.7753,39.5084,"South Gate, CA",-118.1926,33.9448
772,"Santa Ana, CA",-117.8819,33.7366,"Columbus, OH",-82.985,39.9862,"Charlottesville, VA",-78.4855,38.0375
773,"San Marcos, CA",-117.1744,33.135,"Meridian, ID",-116.3968,43.6112,"Mission Viejo, CA",-117.655,33.6095
774,"Indianapolis, IN",-86.1458,39.7771,"Summerville, SC",-80.1799,33.0015,"Johnstown, PA",-78.9193,40.3258
775,"Hillsboro, OR",-122.9361,45.5272,"Brooklyn, NY",-73.9496,40.6501,"Hanover, PA",-76.9835,39.8117
776,"Johnstown, PA",-78.9193,40.3258,"Westland, MI",-83.3805,42.3192,"Gilbert, AZ",-111.7463,33.3101
777,"Port St. Lucie, FL",-80.3883,27.2796,"Wilmington, NC",-77.8866,34.21,"Weston, FL",-80.4054,26.1006
778,"Sierra Vista, AZ",-110.3153,31.563,"Durham, NC",-78.9031,35.9794,"Tucson, AZ",-110.8782,32.1545
779,"Atlanta, GA",-84.4224,33.7627,"Hartford, CT",-72.6834,41.7661,"Bronx, NY",-73.8662,40.8501
780,"Baton Rouge, LA",-91.131,30.4418,"New Brunswick, NJ",-74.445,40.487,"Aurora, IL",-88.2901,41.7637
781,"Newport Beach, CA",-117.8669,33.6151,"Elizabethtown, KY",-85.877,37.703,"Corona, CA",-117.5649,33.8616
782,"Glendora, CA",-117.8468,34.1449,"Elkhart, IN",-85.9628,41.6916,"Hesperia, CA",-117.3147,34.3975
783,"Tigard, OR",-122.7845,45.4237,"Encinitas, CA",-117.2613,33.049,"Missoula, MT",-114.0214,46.875
784,"Wheaton, MD",-77.0572,39.0492,"Beaufort, SC",-80.7235,32.4597,"Jurupa Valley, CA",-117.4705,34.001
785,"Nampa, ID",-116.5631,43.5845,"Tampa, FL",-82.4451,27.9942,"Charlotte, NC",-80.8304,35.208
786,"Lake Elsinore, CA",-117.3344,33.6847,"The Hammocks, FL",-80.4483,25.67,"El Monte, CA",-118.0291,34.0739
787,"Pinellas Park, FL",-82.7078,27.8589,"Lakewood, CO",-105.1168,39.6977,"Tinley Park, IL",-87.805,41.567
788,"Livermore, CA",-121.7608,37.6862,"Whittier, CA",-118.0188,33.9678,"Elkhart, IN",-85.9628,41.6916
789,"Murfreesboro, TN",-86.4119,35.8492,"Albany, GA",-84.1762,31.5776,"Kenosha, WI",-87.8765,42.5864
790,"Gaithersburg, MD",-77.2132,39.1346,"Terre Haute, IN",-87.3763,39.4654,"Anaheim, CA",-117.8572,33.839
791,"Cartersville, GA",-84.8007,34.1639,"Jacksonville, NC",-77.3941,34.7288,"Quincy, MA",-71.0183,42.2516
792,"Ellicott City, MD",-76.8344,39.2773,"Glendora, CA",-117.8468,34.1449,"Arden-Arcade, CA",-121.381,38.6034
793,"Billings, MT",-108.5524,45.7891,"Kansas City, KS",-94.7443,39.1234,"Lowell, MA",-71.3217,42.6389
794,"Frederick, MD",-77.4141,39.4336,"Naperville, IL",-88.1657,41.7483,"Union City, NJ",-74.0323,40.7674
795,"High Point, NC",-79.9938,35.9907,"Beaverton, OR",-122.8168,45.4779,"Cheyenne, WY",-104.79,41.1351
796,"Bangor, ME",-68.7906,44.8322,"Irving, TX",-96.9702,32.8584,"Costa Mesa, CA",-117.9135,33.6667
797,"Spartanburg, SC",-81.9257,34.9437,"Tucson, AZ",-110.8782,32.1545,"Poinciana, FL",-81.482,28.1217
798,"Hoboken, NJ",-74.0279,40.7453,"Kentwood, MI",-85.5925,42.8852,"South Fulton, GA",-84.5802,33.6269
799,"Long Beach, CA",-118.1675,33.7981,"Bloomington, MN",-93.3151,44.8306,"Corpus Christi, TX",-97.3755,27.726
800,"Alameda, CA",-122.2672,37.767,"Simi Valley, CA",-118.749,34.2663,"Madison, WI",-89.3931,43.0826
801,"Coconut Creek, FL",-80.1842,26.2803,"Eagle Pass, TX",-100.484,28.7125,"Skokie, IL",-87.74,42.0359
802,"Visalia, CA",-119.3269,36.3276,"Westland, MI",-83.3805,42.3192,"San Mateo, CA",-122.3122,37.5521
803,"Visalia, CA",-119.3269,36.3276,"Great Falls, MT",-111.2995,47.5022,"Glendora, CA",-117.8468,34.1449
804,"Kennewick, WA",-119.1732,46.1978,"Garden Grove, CA",-117.9601,33.7787,"Napa, CA",-122.3011,38.2976
805,"Columbia, MD",-76.859,39.2004,"Titusville, FL",-80.8193,28.5727,"Thousand Oaks, CA",-118.8755,34.1914
806,"Clovis, CA",-119.6831,36.8278,"Temple, TX",-97.3894,31.1076,"Longview, TX",-94.7621,32.5193
807,"Hickory, NC",-81.323,35.7425,"Lee's Summit, MO",-94.3816,38.9172,"Raleigh, NC",-78.6435,35.8325
808,"Largo, FL",-82.7711,27.9088,"Manteca, CA",-121.2264,37.7927,"Greeley, CO",-104.7706,40.4151
809,"Newark, NJ",-74.1725,40.7245,"Titusville, FL",-80.8193,28.5727,"Hilton Head Island, SC",-80.7499,32.1896
810,"La Crosse, WI",-91.2268,43.824,"Sandy Springs, GA",-84.3703,33.9366,"Battle Creek, MI",-85.2296,42.2986
811,"Baldwin Park, CA",-117.9721,34.0829,"Flagstaff, AZ",-111.6195,35.1872,"Battle Creek, MI",-85.2296,42.2986
812,"Lafayette, IN",-86.8594,40.399,"Fishers, IN",-85.9661,39.9589,"Titusville, FL",-80.8193,28.5727
813,"Hanford, CA",-119.6549,36.3274,"Janesville, WI",-89.0136,42.6855,"Daytona Beach, FL",-81.0982,29.1994
814,"Alhambra, CA",-118.1355,34.084,"Carmel, IN",-86.146,39.965,"Bismarck, ND",-100.7694,46.8144
815,"Rome, GA",-85.1862,34.2661,"Pasadena, CA",-118.139,34.1597,"Aloha, OR",-122.8726,45.492
816,"The Hammocks, FL",-80.4483,25.67,"Pine Hills, FL",-81.4693,28.5818,"Grand Island, NE",-98.3584,40.9214
817,"Sheboygan, WI",-87.7316,43.7403,"San Marcos, CA",-117.1744,33.135,"Akron, OH",-81.5219,41.0798
818,"Norwich, CT",-72.0882,41.5495,"Lexington, KY",-84.4587,38.0423,"Caguas, PR",-66.0388,18.2319
819,"Gastonia, NC",-81.1853,35.2494,"North Little Rock, AR",-92.2371,34.7808,"Dale City, VA",-77.3459,38.6473
820,"Bowling Green, KY",-86.4373,36.9719,"Lake Elsinore, CA",-117.3344,33.6847,"South Jordan, UT",-111.9782,40.557
821,"Lincoln, NE",-96.6788,40.809,"Bangor, ME",-68.7906,44.8322,"Brooklyn, NY",-73.9496,40.6501
822,"Elgin, IL",-88.3229,42.0385,"Knoxville, TN",-83.9496,35.9692,"Kentwood, MI",-85.5925,42.8852
823,"Ankeny, IA",-93.6033,41.7285,"Dublin, CA",-121.8963,37.7161,"Rancho Cucamonga, CA",-117.5666,34.1248
824,"Chesapeake, VA",-76.3024,36.6778,"Springfield, IL",-89.6538,39.771,"Lake Jackson, TX",-95.4522,29.0516
825,"Lompoc, CA",-120.4714,34.6618,"Pittsburg, CA",-121.8964,38.0182,"Kettering, OH",-84.1495,39.6957
826,"Peoria, IL",-89.6153,40.752,"Tulare, CA",-119.34,36.1996,"South Fulton, GA",-84.5802,33.6269
827,"Boca Raton, FL",-80.108,26.3752,"Encinitas, CA",-117.2613,33.049,"Denver, CO",-104.8759,39.7621
828,"Casas Adobes, AZ",-111.0114,32.3423,"Honolulu, HI",-157.846,21.3294,"Colton, CA",-117.3254,34.0538
829,"Somerville, MA",-71.1013,42.3908,"St. Paul, MN",-93.104,44.9477,"York, PA",-76.7315,39.9651
830,"Lehigh Acres, FL",-81.6388,26.612,"Omaha, NE",-96.0522,41.2627,"San Mateo, CA",-122.3122,37.5521
831,"San Rafael, CA",-122.5222,37.9905,"Methuen Town, MA",-71.1889,42.734,"Waldorf, MD",-76.9195,38.6085
832,"Meriden, CT",-72.7944,41.5367,"Mission Viejo, CA",-117.655,33.6095,"Rogers, AR",-94.1526,36.3172
833,"Castro Valley, CA",-122.0631,37.7091,"Rialto, CA",-117.3894,34.1174,"Elizabethtown, KY",-85.877,37.703
834,"Mount Vernon, WA",-122.3115,48.4202,"Huntington Beach, CA",-118.0025,33.696,"Mishawaka, IN",-86.1669,41.6736
835,"Germantown, MD",-77.2643,39.1755,"Columbia, SC",-80.9037,34.0376,"Wichita Falls, TX",-98.5291,33.9072
836,"Dublin, CA",-121.8963,37.7161,"Bakersfield, CA",-119.0359,35.3529,"Bend, OR",-121.3087,44.0562
837,"Monroe, LA",-92.0774,32.5183,"Rowlett, TX",-96.5488,32.9157,"Bullhead City, AZ",-114.546,35.1205
838,"Peoria, IL",-89.6153,40.752,"Monessen, PA",-79.8828,40.1519,"Jacksonville, NC",-77.3941,34.7288
839,"Deerfield Beach, FL",-80.1277,26.305,"Dover, NH",-70.8845,43.1887,"Cleveland, TN",-84.8707,35.1817
840,"Pleasanton, CA",-121.8805,37.6663,"Houston, TX",-95.3889,29.7863,"Apopka, FL",-81.5304,28.7014
841,"Newport Beach, CA",-117.8669,33.6151,"Lake Charles, LA",-93.2122,30.2012,"Mountain View, CA",-122.0796,37.4
842,"New Rochelle, NY",-73.7836,40.9305,"Eden Prairie, MN",-93.4595,44.8488,"Johns Creek, GA",-84.2027,34.0333
843,"Dalton, GA",-84.9712,34.769,"Spartanburg, SC",-81.9257,34.9437,"Honolulu, HI",-157.846,21.3294
844,"Pasco, WA",-119.1304,46.2506,"Watsonville, CA",-121.7706,36.9206,"Wenatchee, WA",-120.3283,47.4356
845,"Bartlett, TN",-89.8195,35.2337,"Decatur, AL",-86.9906,34.573,"Metairie, LA",-90.178,29.9977
846,"Framingham, MA",-71.4368,42.3085,"Rio Rancho, NM",-106.6981,35.2872,"Lauderhill, FL",-80.2242,26.1605
847,"Lubbock, TX",-101.8878,33.5659,"Flower Mound, TX",-97.1146,33.0344,"Malden, MA",-71.0576,42.4305
848,"Mission Viejo, CA",-117.655,33.6095,"Diamond Bar, CA",-117.8161,33.9991,"Peoria, AZ",-112.2989,33.7844
849,"Mandeville, LA",-90.0904,30.3751,"Santa Ana, CA",-117.8819,33.7366,"Pasco, WA",-119.1304,46.2506
850,"Springfield, MA",-72.5395,42.1155,"Lexington, KY",-84.4587,38.0423,"Albuquerque, NM",-106.6464,35.1053
851,"Spring Valley, NV",-115.2619,36.0987,"Pasadena, TX",-95.1499,29.6583,"Forney, TX",-96.4529,32.744
852,"Gilbert, AZ",-111.7463,33.3101,"Tracy, CA",-121.4522,37.7269,"Idaho Falls, ID",-112.0362,43.4872
853,"Germantown, MD",-77.2643,39.1755,"Wilmington, DE",-75.5413,39.7415,"Pasadena, TX",-95.1499,29.6583
854,"Charlottesville, VA",-78.4855,38.0375,"Woodland, CA",-121.75,38.6712,"Moore, OK",-97.4758,35.3293
855,"Alhambra, CA",-118.1355,34.084,"Provo, UT",-111.6457,40.2457,"DeSoto, TX",-96.8633,32.5992
856,"Hialeah, FL",-80.3046,25.8696,"Wheaton, MD",-77.0572,39.0492,"Pinellas Park, FL",-82.7078,27.8589
857,"Port Charlotte, FL",-82.114,26.9918,"Broomfield, CO",-105.0527,39.9541,"Metairie, LA",-90.178,29.9977
858,"Fond du Lac, WI",-88.4396,43.7718,"Ocala, FL",-82.1511,29.178,"Margate, FL",-80.2119,26.2466
859,"Round Rock, TX",-97.666,30.5254,"Newark, NJ",-74.1725,40.7245,"Austin, TX",-97.7522,30.3004
860,"Bentonville, AR",-94.2306,36.3546,"Jonesboro, AR",-90.6791,35.8212,"Elgin, IL",-88.3229,42.0385
861,"Torrance, CA",-118.3417,33.8346,"Winchester, VA",-78.1746,39.1735,"Jersey City, NJ",-74.0682,40.7161
862,"Oklahoma City, OK",-97.5136,35.4676,"Jefferson City, MO",-92.1759,38.5676,"Boulder, CO",-105.2523,40.0249
863,"Rio Rancho, NM",-106.6981,35.2872,"Davie, FL",-80.287,26.0789,"Parker, CO",-104.7753,39.5084
864,"Pittsburgh, PA",-79.9762,40.4396,"Lynchburg, VA",-79.1909,37.4003,"Panama City, FL",-85.6004,30.1995
865,"Rochester Hills, MI",-83.1563,42.6645,"West Bend, WI",-88.1824,43.4184,"East Orange, NJ",-74.2117,40.7651
866,"Erie, PA",-80.0733,42.1168,"Westland, MI",-83.3805,42.3192,"Fishers, IN",-85.9661,39.9589
867,"Boca Raton, FL",-80.108,26.3752,"Southaven, MS",-89.9787,34.9514,"Mankato, MN",-93.9773,44.1712
868,"Santa Maria, CA",-120.4432,34.9334,"Santa Clara, CA",-121.968,37.3645,"Greenwood, IN",-86.1073,39.6019
869,"Bellingham, WA",-122.4687,48.7543,"Pittsburg, CA",-121.8964,38.0182,"Dothan, AL",-85.4069,31.2335
870,"Lansing, MI",-84.5601,42.7142,"Buffalo, NY",-78.8487,42.9016,"Bozeman, MT",-111.0552,45.6832
871,"San Francisco, CA",-122.443,37.7562,"Gresham, OR",-122.4413,45.5023,"Atlantic City, NJ",-74.4527,39.3797
872,"Grand Island, NE",-98.3584,40.9214,"Pomona, CA",-117.7626,34.0585,"Charlottesville, VA",-78.4855,38.0375
873,"Longmont, CO",-105.1005,40.1686,"Bethesda, MD",-77.1188,38.9866,"Chattanooga, TN",-85.2488,35.0657
874,"Plano, TX",-96.7487,33.0502,"Metairie, LA",-90.178,29.9977,"Oceanside, CA",-117.3083,33.2247
875,"Albany, OR",-123.0966,44.6274,"Champaign, IL",-88.2735,40.1144,"Margate, FL",-80.2119,26.2466
876,"San Angelo, TX",-100.4506,31.4424,"Pocatello, ID",-112.4646,42.8724,"Coeur d'Alene, ID",-116.7935,47.7041
877,"Bremerton, WA",-122.7122,47.5436,"Wilmington, DE",-75.5413,39.7415,"Framingham, MA",-71.4368,42.3085
878,"Norman, OK",-97.3471,35.2335,"Portland, ME",-70.2715,43.6773,"Savannah, GA",-81.1784,32.0281
879,"Livermore, CA",-121.7608,37.6862,"Florence, AL",-87.6654,34.8303,"Camarillo, CA",-119.0322,34.223
880,"Chambersburg, PA",-77.6556,39.9315,"Pembroke Pines, FL",-80.3382,26.0128,"Durham, NC",-78.9031,35.9794
881,"Edmond, OK",-97.4159,35.6689,"Brooklyn Park, MN",-93.3505,45.1112,"Yuma, AZ",-114.5488,32.5992
882,"Boise, ID",-116.2312,43.6007,"Kirkland, WA",-122.2054,47.6974,"Edmond, OK",-97.4159,35.6689
883,"Placentia, CA",-117.8553,33.8807,"Miami, FL",-80.2102,25.7839,"Youngstown, OH",-80.6463,41.0993
884,"Portland, ME",-70.2715,43.6773,"Danbury, CT",-73.471,41.4016,"Santa Cruz, CA",-122.0346,36.9789
885,"Charlottesville, VA",-78.4855,38.0375,"Fishers, IN",-85.9661,39.9589,"Dundalk, MD",-76.4942,39.2703
886,"Columbus, GA",-84.8771,32.51,"Doral, FL",-80.3565,25.8151,"Norwich, CT",-72.0882,41.5495
887,"Garden Grove, CA",-117.9601,33.7787,"Menifee, CA",-117.1849,33.6909,"St. George, UT",-113.577,37.077
888,"Queen Creek, AZ",-111.6343,33.2386,"Yuba City, CA",-121.6381,39.1357,"Wheaton, IL",-88.1083,41.8561
889,"Missouri City, TX",-95.5365,29.563,"Fort Wayne, IN",-85.1437,41.0886,"Altoona, PA",-78.4007,40.5082
890,"Arcadia, CA",-118.0373,34.1342,"Sparks, NV",-119.7157,39.5729,"Longview, WA",-122.9629,46.1461
891,"New Brunswick, NJ",-74.445,40.487,"Spring Valley, NV",-115.2619,36.0987,"Downey, CA",-118.1312,33.9379
892,"Madison, AL",-86.7626,34.7114,"Billings, MT",-108.5524,45.7891,"Anderson, SC",-82.6479,34.5211
893,"Boynton Beach, FL",-80.0811,26.5281,"Melbourne, FL",-80.6627,28.1085,"Pleasanton, CA",-121.8805,37.6663
894,"West Covina, CA",-117.9112,34.0555,"Wheaton, MD",-77.0572,39.0492,"Ankeny, IA",-93.6033,41.7285
895,"Marysville, WA",-122.1561,48.0809,"Kannapolis, NC",-80.6403,35.4764,"Duluth, MN",-92.1392,46.7756
896,"Burien, WA",-122.3394,47.4762,"Trenton, NJ",-74.7641,40.2236,"St. Joseph, MO",-94.821,39.7599
897,"El Paso de Robles, CA",-120.656,35.6394,"Clarksville, TN",-87.342,36.5695,"Rowland Heights, CA",-117.8911,33.9716
898,"Norwalk, CA",-118.0829,33.9069,"Flint, MI",-83.6922,43.0235,"Carolina, PR",-65.9792,18.4054
899,"Somerville, MA",-71.1013,42.3908,"Bismarck, ND",-100.7694,46.8144,"Gilbert, AZ",-111.7463,33.3101
900,"Bristol, TN",-82.2154,36.5572,"Upland, CA",-117.6603,34.1178,"Pompano Beach, FL",-80.1312,26.2428
901,"Hesperia, CA",-117.3147,34.3975,"Albany, GA",-84.1762,31.5776,"Kansas City, MO",-94.5541,39.1239
902,"Atascocita, TX",-95.1953,29.9777,"Roseville, CA",-121.3196,38.7703,"Houston, TX",-95.3889,29.7863
903,"Renton, WA",-122.1919,47.4784,"Sumter, SC",-80.393,33.9392,"El Paso de Robles, CA",-120.656,35.6394
904,"Allentown, PA",-75.4756,40.5961,"El Cajon, CA",-116.9605,32.8017,"Kenosha, WI",-87.8765,42.5864
905,"Kendall, FL",-80.3556,25.6697,"San Rafael, CA",-122.5222,37.9905,"Pocatello, ID",-112.4646,42.8724
906,"Kendale Lakes, FL",-80.4078,25.7081,"Bellflower, CA",-118.1271,33.888,"Hagerstown, MD",-77.7217,39.6401
907,"Plantation, FL",-80.2617,26.126,"Anaheim, CA",-117.8572,33.839,"Palm Bay, FL",-80.6627,27.955
908,"Wenatchee, WA",-120.3283,47.4356,"Paterson, NJ",-74.1624,40.9147,"Thousand Oaks, CA",-118.8755,34.1914
909,"Hillsboro, OR",-122.9361,45.5272,"El Paso de Robles, CA",-120.656,35.6394,"Titusville, FL",-80.8193,28.5727
910,"Haverhill, MA",-71.0871,42.7838,"West Covina, CA",-117.9112,34.0555,"Springdale, AR",-94.1574,36.1899
911,"Saratoga Springs, NY",-73.7775,43.0674,"Murfreesboro, TN",-86.4119,35.8492,"Clearwater, FL",-82.7622,27.9789
912,"Baldwin Park, CA",-117.9721,34.0829,"Texarkana, TX",-94.0815,33.4487,"New Bedford, MA",-70.9428,41.6697
913,"Apopka, FL",-81.5304,28.7014,"Kankakee, IL",-87.8643,41.1019,"Costa Mesa, CA",-117.9135,33.6667
914,"Warren, MI",-83.027,42.4934,"Leesburg, FL",-81.8996,28.7657,"Pearland, TX",-95.3215,29.5585
915,"Davie, FL",-80.287,26.0789,"Miami Gardens, FL",-80.2426,25.9433,"Dearborn Heights, MI",-83.2769,42.3164
916,"Daphne, AL",-87.8866,30.6286,"Fremont, CA",-121.9852,37.5265,"Galveston, TX",-94.891,29.2487
917,"Murfreesboro, TN",-86.4119,35.8492,"Union City, NJ",-74.0323,40.7674,"Pittsfield, MA",-73.2605,42.4517
918,"Stonecrest, GA",-84.1372,33.6842,"Tampa, FL",-82.4451,27.9942,"Brooklyn, NY",-73.9496,40.6501
919,"Country Club, FL",-80.3102,25.9407,"Monroe, LA",-92.0774,32.5183,"Wichita Falls, TX",-98.5291,33.9072
920,"Champaign, IL",-88.2735,40.1144,"Novato, CA",-122.5576,38.092,"Davie, FL",-80.287,26.0789
921,"Rialto, CA",-117.3894,34.1174,"Manhattan, NY",-73.9662,40.7834,"Hammond, IN",-87.491,41.6169
922,"Peoria, IL",-89.6153,40.752,"Port Arthur, TX",-93.9264,29.8554,"Buffalo, NY",-78.8487,42.9016
923,"Eagan, MN",-93.1638,44.8169,"Peoria, AZ",-112.2989,33.7844,"Billings, MT",-108.5524,45.7891
924,"New York, NY",-73.9249,40.6943,"Montebello, CA",-118.1108,34.0155,"Sunnyvale, CA",-122.0256,37.3836
925,"Perth Amboy, NJ",-74.2724,40.5203,"Merced, CA",-120.4778,37.3057,"Lawrence, KS",-95.2641,38.9597
926,"Jacksonville, FL",-81.6749,30.3322,"Nashua, NH",-71.491,42.7491,"Carmel, IN",-86.146,39.965
927,"Milpitas, CA",-121.8921,37.4339,"Springfield, MO",-93.2916,37.1943,"Queens, NY",-73.7976,40.7498
928,"Highlands Ranch, CO",-104.9708,39.5419,"Anderson, IN",-85.6893,40.0891,"St. Augustine, FL",-81.31,29.8977
929,"Slidell, LA",-89.7826,30.2881,"Oceanside, CA",-117.3083,33.2247,"Mansfield, TX",-97.1211,32.569
930,"Monessen, PA",-79.8828,40.1519,"Racine, WI",-87.8135,42.7274,"Tamarac, FL",-80.2542,26.2056
931,"Chico, CA",-121.8152,39.7575,"Normal, IL",-88.9881,40.5218,"Hagerstown, MD",-77.7217,39.6401
932,"Bellflower, CA",-118.1271,33.888,"Framingham, MA",-71.4368,42.3085,"Oakland, CA",-122.2165,37.7903
933,"Cedar Rapids, IA",-91.6782,41.9665,"Westland, MI",-83.3805,42.3192,"Richardson, TX",-96.7093,32.9717
934,"Sheboygan, WI",-87.7316,43.7403,"Kendale Lakes, FL",-80.4078,25.7081,"Eugene, OR",-123.1173,44.0563
935,"Killeen, TX",-97.7296,31.0754,"Surprise, AZ",-112.4524,33.68,"Waldorf, MD",-76.9195,38.6085
936,"Virginia Beach, VA",-76.0435,36.7335,"Spring, TX",-95.383,30.0613,"Coconut Creek, FL",-80.1842,26.2803
937,"Evansville, IN",-87.5341,37.9881,"Florence, SC",-79.7877,34.1781,"Westminster, CO",-105.0624,39.8837
938,"St. Petersburg, FL",-82.6652,27.7931,"Delray Beach, FL",-80.0905,26.455,"Orem, UT",-111.6992,40.2983
939,"Florence-Graham, CA",-118.2447,33.9682,"Lancaster, CA",-118.1753,34.6935,"Aurora, CO",-104.7273,39.7087
940,"Dublin, CA",-121.8963,37.7161,"Dubuque, IA",-90.7067,42.5008,"Durham, NC",-78.9031,35.9794
941,"Kannapolis, NC",-80.6403,35.4764,"Wausau, WI",-89.6459,44.962,"Cartersville, GA",-84.8007,34.1639
942,"West Valley City, UT",-112.0115,40.6889,"Kent, WA",-122.2129,47.3887,"Fountain Valley, CA",-117.9514,33.7105
943,"Temple, TX",-97.3894,31.1076,"Grand Island, NE",-98.3584,40.9214,"Glendale, AZ",-112.2311,33.5791
944,"Columbus, GA",-84.8771,32.51,"Beloit, WI",-89.0184,42.523,"Springfield, MA",-72.5395,42.1155
945,"Corona, CA",-117.5649,33.8616,"Elizabeth, NJ",-74.1912,40.6657,"Hickory, NC",-81.323,35.7425
946,"Concord, CA",-122.0016,37.9722,"Jacksonville, NC",-77.3941,34.7288,"Albuquerque, NM",-106.6464,35.1053
947,"Florence, AL",-87.6654,34.8303,"Southaven, MS",-89.9787,34.9514,"Alhambra, CA",-118.1355,34.084
948,"Chula Vista, CA",-117.0145,32.6281,"Knoxville, TN",-83.9496,35.9692,"Detroit, MI",-83.1024,42.3834
949,"Caldwell, ID",-116.6591,43.6453,"Honolulu, HI",-157.846,21.3294,"Silver Spring, MD",-77.0207,39.0028
950,"Levittown, NY",-73.5125,40.7241,"Glendora, CA",-117.8468,34.1449,"Albany, NY",-73.7987,42.6664
951,"East Stroudsburg, PA",-75.1779,41.0023,"West Haven, CT",-72.9672,41.2739,"Williamsburg, VA",-76.7076,37.2692
952,"Burlington, VT",-73.2314,44.4877,"Midland, TX",-102.1137,32.0249,"Santee, CA",-116.9851,32.8554
953,"Sherman, TX",-96.6218,33.6274,"Concord, NC",-80.6366,35.3933,"Apex, NC",-78.8728,35.7239
954,"Pueblo, CO",-104.6112,38.2705,"Boca Raton, FL",-80.108,26.3752,"Sarasota, FL",-82.5431,27.3386
955,"Wilmington, DE",-75.5413,39.7415,"Cheyenne, WY",-104.79,41.1351,"Brentwood, CA",-121.7191,37.9355
956,"Livermore, CA",-121.7608,37.6862,"O'Fallon, MO",-90.7175,38.785,"Rowlett, TX",-96.5488,32.9157
957,"Chicopee, MA",-72.5719,42.1764,"Mandeville, LA",-90.0904,30.3751,"Torrance, CA",-118.3417,33.8346
958,"Baldwin Park, CA",-117.9721,34.0829,"Visalia, CA",-119.3269,36.3276,"Muskegon, MI",-86.2563,43.2281
959,"Beloit, WI",-89.0184,42.523,"Brandon, FL",-82.3,27.9367,"Parma, OH",-81.7286,41.3843
960,"Wheaton, IL",-88.1083,41.8561,"Shreveport, LA",-93.7956,32.4656,"Warwick, RI",-71.4334,41.7062
961,"Apple Valley, CA",-117.2104,34.5328,"Aliso Viejo, CA",-117.7289,33.5792,"DeKalb, IL",-88.7482,41.9313
962,"Blaine, MN",-93.2077,45.1696,"White Plains, NY",-73.7549,41.022,"Placentia, CA",-117.8553,33.8807
963,"Rochester, MN",-92.4778,44.0151,"Parma, OH",-81.7286,41.3843,"Cartersville, GA",-84.8007,34.1639
964,"Richmond, VA",-77.4756,37.5295,"Rialto, CA",-117.3894,34.1174,"Peoria, IL",-89.6153,40.752
965,"Savannah, GA",-81.1784,32.0281,"Jupiter, FL",-80.1128,26.9199,"Pleasanton, CA",-121.8805,37.6663
966,"Greenville, NC",-77.3768,35.5956,"Burlington, VT",-73.2314,44.4877,"Elizabeth, NJ",-74.1912,40.6657
967,"Carmichael, CA",-121.323,38.6337,"Redondo Beach, CA",-118.3766,33.8574,"Mission, TX",-98.3251,26.2041
